Station number,Station name,Region,Rainfall (mm),Mean,Percentile,Years of data,Latitude (°),Longitude (°),Elevation (m)
31004,BABINDA POST OFFICE,QLD,12067.4,12851.8,37.1,90,-17.34,145.92,14
32042,TULLY SUGAR MILL,QLD,11420.0,12270.5,33.0,92,-17.94,145.93,19
31187,TOPAZ ALERT,QLD,11350.0,11916.9,-1.0,13,-17.47,145.73,689
97085,MOUNT READ,TAS,10830.6,10830.6,-1.0,1,-41.84,145.54,1120
32161,CORSIS ALERT,QLD,10553.0,11137.4,-1.0,8,-17.60,145.90,48
60085,YARRAS (MOUNT SEAVIEW),NSW,10506.9,5648.5,100.0,68,-31.39,152.25,155
32152,TUNG OIL TM,QLD,10030.8,9522.7,-1.0,7,-17.55,145.93,9
32009,BINGIL BAY,QLD,9921.3,9226.2,69.7,77,-17.84,146.10,25
31104,MT SOPHIA,QLD,9888.6,9913.0,52.8,37,-17.16,145.88,5
97006,LAKE MARGARET DAM,TAS,9623.7,10687.0,8.1,88,-41.99,145.57,665
32160,CENTRAL MILL ALERT,QLD,9501.0,10616.9,-1.0,8,-17.61,145.98,25
32194,COWLEY BEACH (DEFENCE),QLD,8929.2,8591.1,-1.0,3,-17.69,146.11,4
40607,SPRINGBROOK ROAD,QLD,8549.0,6280.7,100.0,21,-28.20,153.27,697
32167,EURAMO TM,QLD,8402.0,8758.0,-1.0,4,-17.99,145.94,10
32192,CARDWELL RANGE,QLD,8348.4,7556.5,61.5,27,-18.55,146.18,15
97020,LAKE MARGARET POWER STATION,TAS,8296.1,8838.2,16.4,68,-42.00,145.54,320
61413,CAREYS PEAK (BARRINGTON TOPS),NSW,8019.6,6673.2,-1.0,9,-32.05,151.47,1430
60165,MOORAL CREEK (THE DEN),NSW,7859.0,5360.9,-1.0,7,-31.66,152.37,649
60161,COMBOYNE (PUBLIC SCHOOL),NSW,7774.0,5402.5,-1.0,6,-31.61,152.47,617
58070,ROSEBANK (REPENTANCE CREEK),NSW,7697.4,5984.4,90.2,42,-28.64,153.41,75
31062,WHYANBEEL VALLEY,QLD,7623.6,8692.7,14.7,69,-16.39,145.35,6
58204,BOAT HARBOUR (ROUS RIVER),NSW,7575.0,5208.9,-1.0,19,-28.32,153.35,30
97091,QUEENSTOWN (SOUTH QUEENSTOWN),TAS,7472.7,7730.8,-1.0,11,-42.10,145.55,118
58056,TWEED HEADS GOLF CLUB,NSW,7437.9,5034.2,100.0,104,-28.20,153.55,5
58040,MULLUMBIMBY (FAIRVIEW FARM),NSW,7432.1,5344.4,97.8,90,-28.55,153.49,15
68224,ROBERTSON (THE PIE SHOP),NSW,7428.6,4967.7,-1.0,15,-34.59,150.63,735
59140,DORRIGO (OLD CORAMBA RD),NSW,7273.5,5484.8,-1.0,11,-30.34,152.72,746
59045,MELDRUM (COOLAWARRAH),NSW,7257.0,5219.4,97.8,46,-30.36,152.49,1230
32191,HAWKINS CREEK,QLD,7203.5,7404.2,37.9,30,-18.59,146.07,26
32094,GAIRLOCH,QLD,7191.0,7343.0,-1.0,19,-18.62,146.18,13
32078,INGHAM COMPOSITE,QLD,7010.0,6585.2,55.0,41,-18.65,146.18,12
32032,MACKNADE SUGAR MILL,QLD,7003.0,6327.5,76.2,106,-18.59,146.25,8
31205,COPPERLODE DAM ALERT,QLD,6970.0,7669.9,-1.0,16,-16.98,145.67,447
59151,COFFS HARBOUR AIRPORT,NSW,6954.6,4940.8,-1.0,5,-30.32,153.12,4
68247,BEAUMONT (THE CEDARS),NSW,6931.4,4812.9,95.0,21,-34.77,150.56,250
32185,HALIFAX ALERT,QLD,6893.0,6789.9,-1.0,13,-18.58,146.28,17
59139,NANA GLEN (COWLING CLOSE),NSW,6829.0,4170.3,100.0,45,-30.10,153.00,70
200790,CHRISTMAS ISLAND AERO,WA,6797.6,6479.6,58.1,32,-10.45,105.69,261
97054,ZEEHAN (WEST COAST PIONEERS MUSEUM),TAS,6716.8,7198.1,9.1,34,-41.88,145.34,175
58007,BYRON BAY (JACARANDA DRIVE),NSW,6646.0,5600.7,93.8,98,-28.64,153.59,3
58222,MINNIE WATER (PUMP SHED),NSW,6635.0,5043.4,-1.0,7,-29.78,153.26,30
31222,CAIRNS RACECOURSE,QLD,6628.6,6690.8,-1.0,5,-16.95,145.75,4
32045,VICTORIA SUGAR MILL,QLD,6622.2,6106.7,70.3,102,-18.65,146.20,10
58127,CLUNES (FLATLEY DRIVE),NSW,6603.6,4701.1,100.0,43,-28.73,153.41,89
58198,BALLINA AIRPORT AWS,NSW,6601.8,5396.4,-1.0,10,-28.84,153.56,1
58186,NORTH MURWILLUMBAH (TWEED RIVER),NSW,6578.0,4570.7,-1.0,19,-28.33,153.40,-999
71075,PERISHER VALLEY AWS,NSW,6524.6,6459.9,-1.0,6,-36.41,148.41,1738
58137,KINGSCLIFF (WORAM PLACE),NSW,6507.3,5569.3,82.6,24,-28.26,153.58,5
40197,MT TAMBORINE FERN ST,QLD,6494.0,4693.4,94.7,96,-27.97,153.20,515
59146,KALANG (KOOROOWI (SHARABEL)),NSW,6431.0,4417.8,-1.0,10,-30.47,152.82,86
31185,MILLAA MILLAA ALERT,QLD,6418.0,6916.0,-1.0,12,-17.52,145.61,861
40931,O\'REILLYS ALERT,QLD,6381.0,4891.3,-1.0,9,-28.23,153.14,913
40335,MT TAMBORINE ALERT,QLD,6319.0,4748.2,-1.0,19,-27.97,153.21,520
32117,ALLINGHAM FORREST DRIVE,QLD,6314.3,7120.8,-1.0,2,-18.69,146.30,10
40417,MIAMI BARDON AVE,QLD,6298.2,4662.1,94.6,38,-28.07,153.42,5
58180,NIMBIN (GOOLMANGAR CREEK),NSW,6276.0,4103.9,-1.0,19,-28.61,153.21,60
63039,KATOOMBA (FARNELLS RD),NSW,6218.0,4159.2,99.1,108,-33.71,150.30,1017
59148,KALANG (SPICKETTS CK (NOONANNIE)),NSW,6210.0,4870.8,-1.0,8,-30.56,152.87,60
27045,WEIPA AERO,QLD,6203.6,6000.1,55.0,21,-12.68,141.92,18
58129,KUNGHUR (THE JUNCTION),NSW,6177.0,4422.4,95.2,22,-28.47,153.25,61
58113,GREEN PIGEON (MORNING VIEW),NSW,6169.4,4884.7,91.5,48,-28.47,153.09,210
58023,MCLEANS RIDGES (LASCOTT DRIVE),NSW,6148.3,4562.2,100.0,20,-28.79,153.40,120
60096,CABBAGE TREE MOUNTAIN,NSW,6100.0,4132.6,-1.0,11,-32.26,152.12,-999
31036,KURANDA RAILWAY STATION,QLD,6099.2,6382.3,44.3,107,-16.82,145.64,340
40981,BURLEIGH WATERS ALERT,QLD,6073.0,4314.7,-1.0,7,-28.08,153.43,-999
40845,BINNA BURRA ALERT,QLD,6066.0,4604.9,-1.0,19,-28.20,153.19,780
31049,MULGRAVE MILL,QLD,6031.0,5842.3,58.7,64,-17.09,145.79,15
58080,WOOLI BEACH,NSW,6002.9,4197.9,100.0,32,-29.86,153.26,5
58162,NASHUA (WILSONS RIVER),NSW,5987.0,5078.5,-1.0,13,-28.73,153.46,30
40999,LANDSBOROUGH,QLD,5982.0,4865.5,-1.0,6,-26.79,152.98,61
57124,POINT LOOKOUT,NSW,5955.2,4323.0,-1.0,13,-30.48,152.40,1550
60153,MOPPY LOOKOUT (BARRINGTON TOPS),NSW,5924.6,5416.6,-1.0,3,-31.89,151.56,1340
58158,MURWILLUMBAH (BRAY PARK),NSW,5877.7,4677.9,91.4,36,-28.34,153.38,8
58012,YAMBA PILOT STATION,NSW,5840.6,4380.2,96.5,114,-29.43,153.36,27
58097,NEW ITALY (VINEYARD HAVEN),NSW,5813.9,4048.2,100.0,30,-29.15,153.28,22
83043,FALLS CREEK (ROCKY VALLEY),VIC,5804.1,7361.1,4.8,43,-36.88,147.29,1661
40861,SUNSHINE COAST AIRPORT,QLD,5774.6,4480.9,90.9,23,-26.60,153.09,3
32004,CARDWELL MARINE PDE,QLD,5765.7,6270.8,35.5,108,-18.25,146.02,5
14142,PIRLANGIMPI AIRPORT,NT,5740.6,5953.8,33.3,34,-11.40,130.42,18
97083,SCOTTS PEAK DAM,TAS,5740.2,5874.0,-1.0,9,-43.04,146.27,408
40534,WUNBURRA,QLD,5711.7,4655.7,96.7,31,-28.16,153.26,566
60095,BUNGWAHL,NSW,5689.0,4083.9,-1.0,14,-32.38,152.38,-999
40908,TEWANTIN RSL PARK,QLD,5680.0,4541.2,-1.0,18,-26.39,153.04,6
61385,WYONG (OLNEY FOREST),NSW,5650.0,3680.0,-1.0,14,-33.08,151.34,390
66080,CASTLE COVE (ROSEBRIDGE AVE),NSW,5638.7,3994.4,97.8,47,-33.78,151.20,75
27075,SCHERGER RAAF,QLD,5621.8,5356.6,-1.0,14,-12.62,142.09,39
71041,THREDBO VILLAGE,NSW,5617.5,5477.2,-1.0,15,-36.50,148.30,1380
40078,EUMUNDI - CRESCENT RD,QLD,5612.4,5052.3,80.4,98,-26.48,152.95,93
58216,BYRON BAY (CAPE BYRON AWS),NSW,5547.8,4497.7,-1.0,11,-28.64,153.64,95
91198,MOUNT BARROW (SOUTH BARROW),TAS,5533.8,5533.8,-1.0,1,-41.39,147.42,1313
40169,PEACHESTER,QLD,5531.0,5205.4,69.6,80,-26.84,152.88,175
40341,WONGAWALLAN ALERT,QLD,5508.2,3538.8,-1.0,10,-27.88,153.21,360
40416,CLEARVIEW TM,QLD,5500.0,4068.0,-1.0,6,-28.00,153.31,3
68252,KIAMA (BRIGHTON ST),NSW,5483.6,4045.2,-1.0,5,-34.67,150.85,62
68248,FITZROY FALLS (RED HILLS),NSW,5464.0,3385.9,-1.0,11,-34.66,150.43,719
66211,WAHROONGA (ADA AVENUE),NSW,5451.2,4071.2,-1.0,7,-33.72,151.11,184
63295,BLACKHEATH (WOMBAT STREET),NSW,5442.0,3461.7,-1.0,16,-33.63,150.28,1030
58199,ROCK VALLEY (LEYCESTER CREEK),NSW,5432.5,3814.0,-1.0,19,-28.74,153.16,20
97047,SAVAGE RIVER MINE,TAS,5413.6,5779.3,12.5,25,-41.49,145.21,352
40995,NOOSAVILLE,QLD,5390.7,4647.6,-1.0,8,-26.41,153.10,8
40847,HINZE DAM HW ALERT,QLD,5386.0,3541.8,-1.0,5,-28.05,153.28,82
14238,WAGAIT BEACH,NT,5341.6,5313.5,-1.0,8,-12.43,130.75,30
40846,CLEARVIEW ALERT,QLD,5297.0,3832.1,-1.0,15,-28.00,153.31,3
58027,HARWOOD ISLAND (HARWOOD SUGAR MILL),NSW,5283.5,3977.5,94.6,94,-29.42,153.25,2
59054,GLENREAGH (CORAMBA STREET),NSW,5280.2,4540.9,-1.0,4,-30.05,152.98,67
60146,OLD BAR (ONDARRO CREST),NSW,5242.8,4216.5,-1.0,4,-31.96,152.59,10
66052,RANDWICK (RANDWICK ST),NSW,5221.0,3604.3,99.0,98,-33.91,151.24,74
85007,BALOOK,VIC,5219.0,4249.8,-1.0,17,-38.43,146.54,585
32101,MUTARNEE STORE,QLD,5209.0,5583.5,33.3,25,-18.96,146.29,60
59030,SOUTH WEST ROCKS (SMOKY CAPE LIGHTHOUSE),NSW,5206.7,4540.8,75.4,66,-30.92,153.09,117
40284,BEERBURRUM FOREST STATION,QLD,5205.0,4494.4,82.2,46,-26.96,152.96,48
27058,HORN ISLAND,QLD,5193.2,5288.9,47.6,22,-10.58,142.29,4
33255,HAMILTON ISLAND,QLD,5173.1,5330.7,-1.0,16,-20.35,148.95,23
68264,JERVIS BAY NSW (JERVIS BAY AIRFIELD AWS),NSW,5160.6,5160.6,-1.0,1,-35.14,150.70,57
40937,BENOBBLE ALERT,QLD,5160.0,3709.9,-1.0,15,-28.00,153.16,72
32184,ZATTAS ALERT,QLD,5136.0,5493.1,-1.0,14,-18.45,145.83,55
32098,ROLLINGSTONE,QLD,5132.9,5031.8,58.3,37,-19.04,146.41,16
66176,AUDLEY (ROYAL NATIONAL PARK),NSW,5122.0,3494.0,100.0,28,-34.06,151.06,120
40319,ROCKY POINT SUGAR MILL,QLD,5100.8,4060.8,87.0,47,-27.73,153.33,3
66188,BELROSE (EVELYN PLACE),NSW,5086.4,3804.3,100.0,24,-33.74,151.22,168
40965,CLONTARF,QLD,5065.8,3573.4,-1.0,8,-27.24,153.09,29
63043,KURRAJONG HEIGHTS (BELLS LINE OF ROAD),NSW,5064.0,3655.7,96.9,98,-33.53,150.63,460
140010,TIN CAN BAY (DEFENCE),QLD,5058.4,4429.2,-1.0,2,-25.94,152.96,31
14982,KANGAROO FLATS (DEFENCE),NT,5056.0,5056.0,-1.0,1,-12.79,130.85,50
66098,ROSE BAY (ROYAL SYDNEY GOLF CLUB),NSW,5045.1,3767.8,97.4,40,-33.88,151.27,8
68072,NOWRA RAN AIR STATION AWS,NSW,5035.0,2875.3,-1.0,12,-34.95,150.54,109
91194,MOUNT VICTORIA (UNA PLAIN),TAS,5034.2,5415.7,-1.0,9,-41.35,147.80,710
140008,CANUNGRA (DEFENCE),QLD,5024.8,4146.2,-1.0,2,-28.04,153.19,108
33053,MOUNT JUKES,QLD,5006.0,6275.0,16.7,43,-21.00,148.94,30
60036,WINGHAM (LANARK CLOSE),NSW,5003.8,3262.8,100.0,102,-31.86,152.34,66
66209,DOVER HEIGHTS (PORTLAND ST),NSW,5003.4,4378.8,-1.0,3,-33.87,151.28,71
40478,FRASER ISLAND EURONG,QLD,5002.8,4697.1,-1.0,12,-25.50,153.13,9
40969,GODWIN BEACH,QLD,5000.6,4265.2,-1.0,13,-27.07,153.11,7
60141,TAREE AIRPORT AWS,NSW,4984.9,3414.1,-1.0,18,-31.89,152.51,8
91321,LOONGANA (SERENDIPITY),TAS,4912.0,5362.6,-1.0,6,-41.40,145.93,468
31189,WHITE CLIFF POINT,QLD,4887.2,5092.4,41.7,25,-16.66,145.57,5
40343,WAMURAN,QLD,4871.1,3739.3,97.3,38,-27.04,152.87,33
32043,UPPER STONE EXELBY,QLD,4867.6,4832.1,57.4,69,-18.72,145.92,61
97024,WARRA,TAS,4864.8,5492.3,-1.0,6,-43.06,146.70,495
68088,SANCTUARY POINT (SALINAS STREET),NSW,4862.6,3560.5,-1.0,15,-35.09,150.62,9
60099,CRAWFORD RIVER (CRAWFORD),NSW,4862.0,3773.5,-1.0,14,-32.44,152.16,-999
63292,MOUNT BOYCE AWS,NSW,4855.2,3023.6,100.0,26,-33.62,150.27,1080
27064,PICCANINNY PLAINS STATION,QLD,4854.3,4835.0,-1.0,5,-13.13,142.79,149
31184,MCKELL ROAD ALERT,QLD,4854.0,4413.3,-1.0,13,-17.44,145.51,1038
33320,MT JUKES,QLD,4848.5,6002.9,-1.0,6,-21.01,148.91,55
27072,BRAMWELL,QLD,4843.7,5200.7,-1.0,5,-12.09,142.56,49
14246,LEANYER,NT,4837.3,5345.6,-1.0,17,-12.38,130.91,10
140007,REDLAND (ALEXANDRA HILLS),QLD,4832.0,3844.4,-1.0,3,-27.54,153.24,51
61282,DORA CREEK (DORA ST),NSW,4828.1,3396.2,100.0,21,-33.09,151.51,1
83084,FALLS CREEK,VIC,4825.2,3660.3,-1.0,12,-36.87,147.28,1765
63028,FAULCONBRIDGE (ST GEORGES CRESCENT),NSW,4814.9,3546.2,83.8,38,-33.69,150.53,460
63081,FAULCONBRIDGE (GREAT WESTERN HWY),NSW,4796.0,3175.3,-1.0,12,-33.69,150.55,428
58068,LAWRENCE ROAD (PRINGLES WAY),NSW,4792.6,3306.2,-1.0,10,-29.41,153.02,110
71032,THREDBO AWS,NSW,4782.0,4464.8,-1.0,19,-36.49,148.29,1957
40980,DECEPTION BAY ALERT,QLD,4781.0,3869.8,-1.0,11,-27.18,153.02,4
32001,BAMBAROO,QLD,4780.4,5504.9,27.0,90,-18.88,146.17,13
68083,CULBURRA TREATMENT WORKS,NSW,4772.6,3564.5,94.7,39,-34.93,150.75,15
27015,MORETON TELEGRAPH STATION,QLD,4765.9,4156.6,86.4,67,-12.45,142.64,40
57095,TABULAM (MUIRNE),NSW,4754.2,3768.5,89.1,47,-28.76,152.45,555
60116,KINDEE BRIDGE (HASTINGS RIVER),NSW,4749.2,3283.3,-1.0,9,-31.44,152.46,-999
68242,KIAMA (BOMBO HEADLAND),NSW,4749.0,3529.6,-1.0,9,-34.65,150.86,16
14015,DARWIN AIRPORT,NT,4732.0,5171.7,34.6,79,-12.42,130.89,30
40856,RAINBOW BEACH,QLD,4730.3,4392.5,62.5,25,-25.90,153.09,14
200839,LORD HOWE ISLAND AERO,NSW,4724.6,4399.4,83.3,31,-31.54,159.08,5
14023,GUNN POINT,NT,4722.6,4529.7,-1.0,7,-12.25,131.04,25
14163,DARWIN BOTANIC GARDENS,NT,4710.3,5140.5,37.5,25,-12.44,130.84,15
61170,DUNGOG - MAIN CREEK (YERANDA),NSW,4708.0,3596.5,100.0,42,-32.28,151.79,154
97092,STRAHAN (ANDREW STREET),TAS,4692.2,5100.2,-1.0,6,-42.15,145.32,10
66126,COLLAROY (LONG REEF GOLF CLUB),NSW,4683.8,3582.9,-1.0,19,-33.74,151.31,2
69150,BRAIDWOOD (MONGARLOWE (LEWESTON)),NSW,4668.4,3252.0,-1.0,7,-35.38,150.00,670
96003,BUTLERS GORGE,TAS,4650.6,5012.4,22.4,59,-42.28,146.28,667
66141,MONA VALE GOLF CLUB,NSW,4646.2,3522.2,90.5,22,-33.68,151.31,10
68241,ALBION PARK (SHELLHARBOUR AIRPORT),NSW,4630.6,2788.2,-1.0,18,-34.56,150.79,8
40224,ALDERLEY,QLD,4591.5,3457.6,93.5,108,-27.42,153.00,39
31209,COOKTOWN AIRPORT,QLD,4578.2,4727.2,-1.0,17,-15.45,145.19,5
85303,REEVES KNOB,VIC,4566.1,3329.6,-1.0,14,-37.53,147.01,-999
33295,ALVA BEACH,QLD,4561.4,2921.8,-1.0,14,-19.46,147.48,8
97072,STRAHAN AERODROME,TAS,4556.6,4848.2,-1.0,15,-42.16,145.29,21
40782,COORAN TM,QLD,4553.0,3539.9,-1.0,9,-26.33,152.81,70
40924,WOODFORD STANMORE,QLD,4548.4,3806.9,-1.0,9,-26.90,152.77,165
14253,CHANNEL POINT,NT,4541.2,5511.6,15.0,21,-13.17,130.12,3
61412,COORANBONG (LAKE MACQUARIE AWS),NSW,4535.6,3237.6,-1.0,9,-33.09,151.46,6
200389,LORD HOWE ISLAND (MILKY WAY),NSW,4534.0,4483.5,-1.0,5,-31.52,159.06,5
14314,NOONAMAH AIRSTRIP,NT,4499.2,4593.4,-1.0,7,-12.61,131.05,18
60021,KRAMBACH (FIREFLY RD),NSW,4473.3,3394.0,94.3,88,-32.06,152.26,65
33308,SAMUEL HILL AERO,QLD,4467.2,4658.8,-1.0,17,-22.74,150.66,31
200731,POINT FAWCETT,NT,4457.2,4775.8,-1.0,16,-11.76,130.03,7
61377,SWANSEA (CATHERINE ST),NSW,4453.0,3930.3,-1.0,15,-33.09,151.63,3
66013,CONCORD GOLF CLUB,NSW,4452.2,3431.6,88.6,71,-33.85,151.10,15
60002,BULAHDELAH POST OFFICE,NSW,4445.3,3997.8,79.8,90,-32.41,152.21,10
40686,BEENHAM VALLEY RD,QLD,4437.2,3860.5,-1.0,8,-26.18,152.82,144
41085,QUEEN MARY FALLS,QLD,4431.0,3583.2,92.6,55,-28.33,152.39,895
14041,MIDDLE POINT,NT,4411.6,4194.3,-1.0,16,-12.61,131.30,14
27061,SOUTHWELL STATION,QLD,4404.7,4366.6,-1.0,10,-14.52,142.04,45
61078,WILLIAMTOWN RAAF,NSW,4388.4,3395.3,100.0,67,-32.79,151.84,8
66034,ABBOTSFORD (BLACKWALL POINT RD),NSW,4385.8,3656.1,-1.0,4,-33.85,151.13,15
66037,SYDNEY AIRPORT AMO,NSW,4382.4,3248.8,95.3,87,-33.95,151.17,6
58006,BRUSHGROVE (CLARENCE ST),NSW,4376.8,3066.7,96.3,83,-29.57,153.08,8
68213,NOWRA BOAT SHED (SHOALHAVEN RIVER),NSW,4376.0,2727.8,-1.0,13,-34.87,150.61,0
72161,CABRAMURRA SMHEA AWS,NSW,4369.8,3563.6,-1.0,12,-35.94,148.38,1482
40693,HIGHVALE,QLD,4365.8,3482.6,83.7,50,-27.38,152.82,98
40043,CAPE MORETON LIGHTHOUSE,QLD,4364.8,4317.3,48.2,113,-27.03,153.47,100
95059,TIM SHEA (SUMMIT),TAS,4362.4,4362.4,-1.0,1,-42.72,146.47,925
59131,MILLBANK,NSW,4361.0,3802.7,-1.0,9,-30.88,152.61,70
33045,MACKAY AERO,QLD,4343.6,4565.8,52.2,24,-21.17,149.18,5
14050,FORT HILL WHARF,NT,4318.9,3985.2,-1.0,2,-12.47,130.85,5
14031,CHARLES POINT,NT,4317.4,4516.2,-1.0,6,-12.39,130.63,14
14289,CHARLES DARWIN UNIVERSITY,NT,4276.4,4239.1,-1.0,2,-12.37,130.87,10
61406,NEWCASTLE (BLACKSMITHS),NSW,4273.0,3384.4,-1.0,8,-33.08,151.65,2
66148,PEAKHURST GOLF CLUB,NSW,4260.0,2664.2,100.0,29,-33.97,151.06,20
40842,BRISBANE AERO,QLD,4257.8,3105.5,-1.0,19,-27.39,153.13,5
69152,CATHCART (MOUNT DARRAGH),NSW,4256.0,3140.8,-1.0,8,-36.84,149.52,880
200786,CAPE WESSEL,NT,4246.6,3718.8,-1.0,14,-11.00,136.76,18
33106,HAMILTON ISLAND AIRPORT,QLD,4239.4,4426.8,-1.0,18,-20.37,148.95,59
91312,ERRIBA (JUBB ROAD),TAS,4222.6,4526.6,-1.0,19,-41.44,146.12,573
33060,PLEYSTOWE SUGAR MILL,QLD,4213.8,4950.3,27.1,86,-21.14,149.04,27
40784,CALAMVALE ALERT,QLD,4210.0,2863.6,-1.0,16,-27.62,153.04,90
60155,WAUKIVORY,NSW,4209.2,3547.4,-1.0,6,-32.13,152.06,158
68044,MITTAGONG (ALFRED STREET),NSW,4207.8,2688.5,100.0,72,-34.45,150.46,635
83032,WHITLANDS (BURDER\'S LANE),VIC,4206.0,4196.8,51.9,80,-36.85,146.32,816
40788,FORESTDALE(JOHNSON RD)AL,QLD,4205.0,2714.4,-1.0,7,-27.66,153.00,80
40785,CAROLE PARK ALERT,QLD,4192.0,2930.1,-1.0,19,-27.60,152.95,80
40458,CAPALABA WATER TREAT,QLD,4183.8,3484.7,91.3,24,-27.53,153.18,28
58077,GRAFTON RESEARCH STN,NSW,4178.4,3030.8,98.0,52,-29.62,152.96,25
40878,WATERFORD ALERT,QLD,4168.0,2916.7,-1.0,19,-27.69,153.14,0
33303,MACKAY ALERT,QLD,4166.0,4791.3,-1.0,16,-21.14,149.19,11
66048,CONCORD (BRAYS RD),NSW,4163.0,3084.5,-1.0,11,-33.85,151.11,15
60162,COOPLACURRIPA (HAWKINS RD),NSW,4138.0,2983.9,-1.0,7,-31.59,151.83,-999
14983,MOUNT BUNDEY NORTH (DEFENCE),NT,4136.6,4006.0,-1.0,2,-12.91,131.87,83
40876,WILSONS PEAK ALERT,QLD,4132.0,3290.4,-1.0,19,-28.24,152.49,852
40964,REGENTS PARK,QLD,4110.6,3241.4,-1.0,15,-27.67,153.04,38
40932,DARLINGTON ALERT,QLD,4105.0,3377.6,-1.0,10,-28.26,153.09,300
96069,DERWENT BRIDGE,TAS,4094.4,4400.4,-1.0,5,-42.13,146.22,727
59124,NYMBOIDA (NYMBOIDA RIVER),NSW,4093.0,3767.1,-1.0,5,-29.98,152.72,180
56239,WILSONS DOWNFALL,NSW,4081.7,3146.0,-1.0,17,-28.70,152.10,970
40794,GREENBANK(THOMPSON RD)AL,QLD,4077.0,2548.2,-1.0,9,-27.70,152.93,80
31217,ATHERTON SOLAR CRESCENT,QLD,4069.9,4622.1,-1.0,6,-17.26,145.47,769
66212,SYDNEY OLYMPIC PARK AWS (ARCHERY CENTRE),NSW,4066.2,3522.3,-1.0,3,-33.83,151.07,4
68159,WEDDERBURN (BOOALBYN),NSW,4064.0,2677.5,100.0,23,-34.17,150.81,250
69023,NELLIGEN (THULE ROAD),NSW,4036.6,3077.2,100.0,43,-35.65,150.15,5
40893,GOOMBOORIAN ALERT,QLD,4026.6,3293.1,-1.0,4,-26.06,152.77,80
140009,GREENBANK (DEFENCE),QLD,4026.6,3243.2,-1.0,2,-27.69,152.99,42
82139,HUNTERS HILL,VIC,4017.4,3565.1,84.0,26,-36.21,147.54,981
69035,BETTOWYND (NOBBYS HILL),NSW,4013.0,2146.1,-1.0,14,-35.76,149.82,240
14310,OENPELLI AIRPORT,NT,4010.0,4032.2,-1.0,3,-12.33,133.01,8
91259,LUNCHEON HILL (FORESTRY),TAS,4009.6,4493.2,-1.0,16,-41.15,145.15,344
40939,BEAUDESERT ALERT,QLD,4004.0,2914.6,-1.0,15,-27.97,152.99,50
31213,CAPE FLATTERY,QLD,3998.6,4097.7,-1.0,17,-14.97,145.31,19
67019,PROSPECT RESERVOIR,NSW,3992.0,2616.7,96.4,113,-33.82,150.91,61
66124,PARRAMATTA NORTH (MASONS DRIVE),NSW,3988.8,2935.3,95.9,50,-33.79,151.02,55
57114,BARYULGIL (CLARENCE RIVER),NSW,3978.6,2663.8,-1.0,12,-29.20,152.60,-999
70214,PARKERS GAP,NSW,3973.0,2950.0,-1.0,9,-35.63,149.50,1249
14112,NIGHTCLIFF POOL,NT,3963.1,4494.0,-1.0,8,-12.38,130.85,7
67109,BAULKHAM HILLS EUCALYPTUS CT,NSW,3963.0,2542.0,-1.0,16,-33.77,150.98,100
9647,WEREROA,WA,3958.6,3531.7,98.1,54,-34.95,117.28,140
40942,PALEN CREEK ALERT,QLD,3957.0,2984.6,-1.0,7,-28.32,152.77,220
91109,YOLLA (SEA VIEW),TAS,3954.4,4341.2,21.4,99,-41.14,145.71,343
40490,CARNEYS CREEK THE RANCH,QLD,3952.8,3095.0,100.0,27,-28.21,152.54,268
60118,ROCKS CROSSING (NOWENDOC RIVER),NSW,3950.2,2858.5,-1.0,15,-31.78,152.08,70
69114,BROGO (BLANCHARDS ROAD),NSW,3949.8,2968.5,96.4,29,-36.54,149.82,61
14198,JABIRU AIRPORT,NT,3948.2,4749.5,12.9,32,-12.66,132.89,27
69127,ARALUEN LOWER (ARALUEN RD),NSW,3947.0,2772.0,100.0,24,-35.69,149.84,145
60104,NOWENDOC (GREEN HILLS),NSW,3945.0,3451.9,-1.0,16,-31.41,151.60,1130
40814,MOY POCKET TM,QLD,3925.0,3079.1,-1.0,13,-26.53,152.74,70
27044,MERLUNA,QLD,3913.0,4334.6,18.4,39,-13.06,142.45,87
14256,COOINDA AIRSTRIP,NT,3897.0,3595.7,-1.0,5,-12.90,132.53,40
40790,MT GRAVATT ALERT,QLD,3895.0,2670.1,-1.0,11,-27.55,153.07,195
40659,GREENBANK THOMPSON ROAD,QLD,3873.0,2792.3,96.8,32,-27.70,152.94,77
66213,NORTH RYDE GOLF CLUB,NSW,3851.0,3100.4,-1.0,9,-33.80,151.12,84
57003,BONALBO POST OFFICE,NSW,3841.4,3101.7,94.6,57,-28.74,152.62,170
83000,ARCHERTON,VIC,3839.0,4100.2,26.3,58,-36.91,146.24,907
61421,CRANKY CORNER (TANGORY MOUNTAIN),NSW,3833.8,3293.0,-1.0,5,-32.56,151.38,458
40089,GOOMBOORIAN,QLD,3828.0,3678.4,66.3,93,-26.06,152.79,94
66161,HOLSWORTHY AERODROME AWS,NSW,3825.8,2549.7,-1.0,7,-33.99,150.95,68
60015,GLOUCESTER POST OFFICE,NSW,3811.4,2875.2,95.0,100,-32.01,151.96,105
14948,PORT KEATS AIRPORT,NT,3803.0,3808.1,-1.0,17,-14.25,129.53,28
67111,NORTH PARRAMATTA (BURNSIDE HOMES),NSW,3799.0,2810.4,-1.0,15,-33.79,151.02,50
86072,MONBULK (SPRING ROAD),VIC,3792.9,3469.9,-1.0,5,-37.88,145.42,-999
14308,CROKER ISLAND AIRPORT,NT,3791.0,3957.1,-1.0,3,-11.16,132.48,9
61346,HUNTER SPRINGS (WONDECLA),NSW,3786.4,3402.9,79.0,39,-31.86,151.44,1235
85063,MOUNT BEST (UPPER TOORA),VIC,3771.3,3440.1,80.0,96,-38.61,146.32,235
61096,PATERSON POST OFFICE,NSW,3765.6,3081.7,90.8,88,-32.60,151.62,21
70237,NIMMITABEL (COTTESLOE),NSW,3762.6,3087.3,80.0,41,-36.59,149.38,1190
91288,QUAMBY BLUFF,TAS,3752.9,4048.9,-1.0,5,-41.67,146.73,745
14508,GOVE AIRPORT,NT,3750.0,4364.0,13.3,31,-12.27,136.82,52
40777,IMBIL ALERT,QLD,3734.8,3131.9,-1.0,3,-26.46,152.68,76
40940,YARRAHAPPINI ALERT,QLD,3732.4,3076.1,-1.0,8,-27.83,152.99,40
1020,TRUSCOTT,WA,3730.2,3401.1,-1.0,13,-14.09,126.39,51
82112,OVENS RIVER @ EUROBIN,VIC,3729.8,3472.1,-1.0,14,-36.65,146.86,-999
63283,HAMPTON (BINDO),NSW,3726.0,2802.3,-1.0,17,-33.70,150.03,1095
29038,KOWANYAMA AIRPORT,QLD,3724.0,3793.1,46.0,88,-15.48,141.75,10
14272,BATCHELOR AIRPORT,NT,3719.4,4558.2,-1.0,18,-13.05,131.03,104
32186,MICHAEL CREEK ALERT,QLD,3712.0,4005.8,-1.0,19,-18.85,145.91,742
14404,MILINGIMBI AIRPORT,NT,3706.4,3506.1,-1.0,14,-12.09,134.89,15
68192,CAMDEN AIRPORT AWS,NSW,3699.4,2287.6,100.0,28,-34.04,150.69,74
200288,NORFOLK ISLAND AERO,NSW,3695.2,3780.7,44.5,111,-29.04,167.94,112
40211,ARCHERFIELD AIRPORT,QLD,3688.2,3173.3,82.4,75,-27.57,153.01,13
32050,YABULU QLD NICKEL,QLD,3683.6,3504.2,59.1,89,-19.20,146.61,9
57005,DRAKE (VILLAGE RESOURCE CENTRE),NSW,3682.3,3199.7,75.3,98,-28.93,152.38,490
67066,ERSKINE PARK RESERVOIR,NSW,3675.0,2412.4,-1.0,5,-33.81,150.80,85
14405,MANINGRIDA AIRPORT,NT,3674.4,3526.6,-1.0,11,-12.06,134.23,28
40945,ROUND MOUNTAIN ALERT,QLD,3657.0,2655.6,-1.0,18,-28.07,152.93,62
86374,KINGLAKE WEST,VIC,3649.8,3057.5,-1.0,10,-37.47,145.26,490
14309,MURGANELLA AIRSTRIP,NT,3643.0,3862.1,-1.0,4,-11.55,132.93,10
1019,KALUMBURU,WA,3632.8,3652.3,-1.0,17,-14.30,126.65,23
300004,MACQUARIE ISLAND,ANT,3629.2,3002.0,98.3,59,-54.50,158.94,6
40946,RATHDOWNEY ALERT,QLD,3629.0,2626.4,-1.0,7,-28.22,152.87,84
67081,SHANES PARK (SOUTH CREEK ROAD),NSW,3621.6,2849.2,-1.0,3,-33.71,150.77,26
40831,IPSWICH ALERT,QLD,3621.0,2702.2,-1.0,5,-27.61,152.76,-999
55335,NUNDLE (MALONGA),NSW,3615.0,2935.5,-1.0,12,-31.53,151.18,1200
91366,JACKEYS MARSH,TAS,3612.5,3749.1,-1.0,7,-41.68,146.68,489
40935,MACLEAN BRIDGE ALERT,QLD,3594.0,2981.8,-1.0,12,-27.79,153.02,3
61288,LOSTOCK DAM,NSW,3577.7,2901.9,97.7,44,-32.33,151.46,200
85289,MURDERERS HILL,VIC,3576.0,2716.1,-1.0,17,-37.85,146.56,720
57018,TABULAM POST OFFICE,NSW,3575.8,2939.6,90.3,104,-28.89,152.57,130
67015,BRINGELLY (MARYLAND),NSW,3558.0,2292.2,97.4,78,-33.97,150.73,122
40962,EBBW VALE,QLD,3551.8,2840.2,-1.0,2,-27.61,152.82,56
9590,NORTHCLIFFE,WA,3535.7,3991.3,22.2,73,-34.63,116.12,120
61250,PATERSON (TOCAL AWS),NSW,3535.4,2829.6,95.5,45,-32.63,151.59,30
40874,BRISBANE ROAD ALERT,QLD,3532.0,2569.0,-1.0,7,-27.61,152.91,-999
85238,ERICA (PARKERS CORNER),VIC,3524.1,3347.2,68.8,49,-37.95,146.39,483
94191,HARTZ MOUNTAIN (KEOGHS PIMPLE),TAS,3519.6,3461.1,-1.0,5,-43.20,146.77,831
83091,JAMIESON LICOLA RD,VIC,3517.7,3261.3,-1.0,15,-37.30,146.15,340
69122,DALMENY (BINALONG ST),NSW,3513.2,2815.6,-1.0,5,-36.17,150.11,10
68007,CAMDEN (BROWNLOW HILL),NSW,3504.5,2231.6,97.3,114,-34.03,150.65,61
40247,LINDFIELD,QLD,3501.4,3187.9,72.9,97,-26.84,152.58,146
94087,KUNANYI (MOUNT WELLINGTON PINNACLE),TAS,3499.2,2370.6,-1.0,10,-42.90,147.24,1261
69022,NAROOMA (MARINE RESCUE),NSW,3497.6,2749.1,92.7,83,-36.21,150.14,25
33307,WOOLSHED,QLD,3492.4,3630.1,-1.0,19,-19.42,146.54,556
9936,HUNTLY,WA,3491.0,3645.9,-1.0,10,-32.62,116.06,320
62100,NULLO MOUNTAIN AWS,NSW,3486.2,2875.8,95.5,23,-32.72,150.23,1130
40889,OAKWOOD TM,QLD,3482.2,2714.7,-1.0,8,-26.45,152.49,200
40873,HARDING STREET ALERT,QLD,3474.0,2490.8,-1.0,4,-27.64,152.79,-999
60137,BRETTI-MACKAY (BARNARD RIVER),NSW,3470.0,2929.5,-1.0,14,-31.77,151.89,120
33059,PLANE CREEK SUGAR MILL,QLD,3461.2,5299.9,6.2,98,-21.43,149.22,16
91055,LORINNA,TAS,3456.3,4053.3,6.5,47,-41.54,146.14,259
56202,BLACK SWAMP (MAXWELL),NSW,3454.2,2972.7,-1.0,17,-28.98,152.16,820
69018,MORUYA HEADS PILOT STATION,NSW,3449.1,2860.3,81.4,114,-35.91,150.15,17
69148,MORUYA AIRPORT AWS,NSW,3445.2,2552.6,-1.0,17,-35.90,150.14,4
40947,CROFTBY ALERT,QLD,3424.0,2973.4,-1.0,9,-28.15,152.57,173
41096,MT KYNOCH,QLD,3419.4,2501.5,-1.0,3,-27.51,151.95,739
33068,MIRANI MARY STREET,QLD,3407.8,4025.2,-1.0,7,-21.16,148.87,43
57014,GLEN ELGIN (GLENBROOK),NSW,3393.8,2948.7,81.8,89,-29.56,152.14,895
9784,KIMBERLEY,WA,3393.4,2958.1,100.0,31,-34.93,117.16,80
57119,WALCHA (KARORI),NSW,3384.8,2780.8,92.7,69,-30.89,151.85,1082
82158,EDI UPPER (BLACK RANGE TROUT FARM),VIC,3384.6,3216.2,-1.0,16,-36.75,146.54,-999
55336,NUNDLE (HEAD OF THE PEEL),NSW,3383.2,2855.4,-1.0,8,-31.60,151.14,-999
69006,BETTOWYND (BELLARINGAH),NSW,3383.0,2344.7,95.2,104,-35.70,149.79,165
9240,BICKLEY,WA,3378.8,3252.3,62.8,44,-32.01,116.14,384
40677,MAROON DAM,QLD,3371.0,2750.4,95.3,44,-28.18,152.66,231
94231,LONGLEY (RIVER BEND ROAD),TAS,3364.6,2961.9,-1.0,15,-42.96,147.20,237
14909,CENTRAL ARNHEM PLATEAU,NT,3363.0,3117.6,-1.0,7,-13.33,133.09,416
67105,RICHMOND RAAF,NSW,3355.8,2236.2,100.0,20,-33.60,150.78,19
82140,LIMA EAST (CHARNWOOD),VIC,3355.2,2877.3,-1.0,16,-36.85,145.94,340
39338,OLD RANGE RD ALERT,QLD,3354.0,2610.4,-1.0,4,-25.36,152.10,50
57020,URBENVILLE,NSW,3347.8,3156.3,71.2,67,-28.47,152.55,378
61014,BRANXTON (DALWOOD VINEYARD),NSW,3343.6,2445.2,95.2,105,-32.64,151.42,40
40912,FRANKLYN VALE ALERT,QLD,3343.2,2342.3,-1.0,13,-27.76,152.47,160
61349,GOSTWYCK BRIDGE (PATERSON RIVER),NSW,3343.0,2442.2,-1.0,13,-32.57,151.61,-999
40985,BELLBIRD PARK (PURSER RD) AL,QLD,3338.0,3107.6,-1.0,7,-27.67,152.87,57
9538,DWELLINGUP,WA,3337.7,3688.9,20.0,76,-32.71,116.06,267
83010,EUROBIN,VIC,3336.2,3446.2,42.9,85,-36.63,146.86,266
40944,RUDDS LANE ALERT,QLD,3333.0,2559.1,-1.0,15,-28.17,152.98,87
56023,OLD KOREELAH (MCPHERSON),NSW,3331.6,2647.7,93.1,88,-28.39,152.42,420
63303,ORANGE AIRPORT AWS,NSW,3326.8,2643.8,-1.0,10,-33.38,149.13,945
40714,ROUND MOUNTAIN TM,QLD,3324.0,2378.0,-1.0,9,-28.07,152.93,44
9968,SHANNON,WA,3323.6,3158.1,-1.0,16,-34.57,116.34,210
9923,WORSLEY DOWNS,WA,3316.1,3354.7,-1.0,7,-33.32,115.99,240
85042,JINDIVICK,VIC,3311.9,3406.5,41.7,97,-38.03,145.90,266
61419,MOUNT PALMER,NSW,3311.0,2547.7,-1.0,7,-31.83,150.35,1050
40762,YARRAHAPPINI TM,QLD,3310.0,2670.7,-1.0,9,-27.83,152.99,11
39059,LADY ELLIOT ISLAND,QLD,3295.2,3378.9,43.7,72,-24.11,152.72,4
86281,NYORA (POST OFFICE),VIC,3293.9,3123.3,81.6,39,-38.33,145.67,120
40825,MARODIAN TM,QLD,3286.0,2452.8,-1.0,12,-25.90,152.35,19
54021,BARRABA (MOUNT LINDSAY),NSW,3278.8,2916.4,79.8,85,-30.32,150.27,869
82155,HOLLAND CK AT WRIGHTLEY,VIC,3278.8,2796.9,-1.0,19,-36.82,146.13,430
14518,GROOTE EYLANDT AIRPORT,NT,3278.2,3783.6,15.0,21,-13.97,136.46,14
85179,BULN BULN,VIC,3274.2,3141.7,75.0,25,-38.10,145.96,195
33302,MIRANI WEIR TW ALERT,QLD,3270.0,3798.9,-1.0,15,-21.18,148.83,34
14901,DOUGLAS RIVER RESEARCH FARM,NT,3263.6,3791.8,-1.0,13,-13.83,131.19,43
33077,PACIFIC HEIGHTS,QLD,3251.2,3851.0,33.3,109,-23.10,150.73,51
68186,BERRIMA WEST (MEDWAY (WOMBAT CREEK)),NSW,3240.0,2340.5,100.0,36,-34.48,150.29,655
84084,MALLACOOTA,VIC,3238.0,2844.2,84.8,34,-37.60,149.73,22
91223,MARRAWAH,TAS,3229.7,3201.3,46.7,46,-40.91,144.71,107
40754,RATHDOWNEY TM,QLD,3222.0,2277.1,-1.0,14,-28.22,152.87,84
14274,MCCLUER ISLAND,NT,3216.0,3422.1,-1.0,13,-11.05,132.98,1
61422,MILBRODALE SCHOOL,NSW,3212.0,2482.0,-1.0,4,-32.70,151.01,88
40841,CROFTBY TM,QLD,3210.0,2666.4,-1.0,5,-28.15,152.57,162
56243,GLEN INNES AIRPORT AWS,NSW,3207.4,2683.1,90.9,23,-29.68,151.69,1044
9636,COWARAMUP,WA,3205.1,3378.3,40.6,65,-33.84,115.07,120
94237,MOUNTAIN RIVER,TAS,3205.0,2835.8,-1.0,9,-42.94,147.14,170
82018,UPLANDS (GIBBO RIVER PARK),VIC,3204.6,3275.5,50.7,74,-36.77,147.70,610
40004,AMBERLEY AMO,QLD,3204.0,2615.7,89.4,67,-27.63,152.71,24
40943,DIECKMANS BRIDGE ALERT,QLD,3204.0,2559.2,-1.0,6,-28.25,152.89,105
23750,URAIDLA,SA,3202.9,3266.1,45.4,109,-34.96,138.74,487
40189,SOMERSET DAM,QLD,3189.2,2989.6,70.6,69,-27.11,152.56,113
92111,UPPER ESK (SOUTH ESK RIVER),TAS,3180.6,3365.9,-1.0,7,-41.43,147.72,362
40824,FISHERMANS POCKET TM,QLD,3180.0,3026.1,-1.0,11,-26.17,152.60,33
94249,CRABTREE (STONEY CREEK FARM),TAS,3178.5,2912.6,-1.0,6,-42.93,147.04,249
33002,AYR DPI RESEARCH STN,QLD,3176.0,2847.2,63.2,58,-19.62,147.38,17
70032,FAIRLIGHT STATION,NSW,3170.2,2462.2,95.5,111,-35.23,148.91,610
40144,MOUNT JOSEPH,QLD,3169.0,2909.6,75.5,95,-25.74,152.24,121
63254,ORANGE AGRICULTURAL INSTITUTE,NSW,3164.8,2753.7,92.1,39,-33.32,149.08,922
33001,BURDEKIN SHIRE COUNCIL,QLD,3163.5,3122.2,56.3,97,-19.58,147.41,13
31069,INNOT HOT SPRINGS TOWNSHIP,QLD,3162.0,2603.7,85.4,49,-17.67,145.24,640
9023,JARRAHDALE,WA,3154.8,3576.2,20.0,106,-32.33,116.08,240
98004,NARACOOPA,TAS,3151.2,2969.3,73.6,88,-39.91,144.10,20
23867,ASHTON,SA,3149.0,3068.8,-1.0,15,-34.93,138.75,496
98000,CITY OF MELBOURNE BAY,TAS,3147.2,3133.7,57.8,84,-40.01,144.11,18
72162,KHANCOBAN AWS,NSW,3143.6,2767.9,79.0,20,-36.23,148.14,339
31108,WALKAMIN RESEARCH STATION,QLD,3140.9,3076.5,59.3,55,-17.13,145.43,594
72043,TUMBARUMBA POST OFFICE,NSW,3139.9,2918.5,74.0,120,-35.78,148.01,645
61209,PUTTY TEA ROOMS,NSW,3133.8,2129.3,-1.0,15,-32.96,150.68,280
40139,MT ALFORD,QLD,3132.5,2790.5,81.5,55,-28.07,152.61,143
61420,MIRANNIE (MAERANIE STATION),NSW,3128.0,2449.6,-1.0,10,-32.39,151.37,178
82142,TOLMIE (MOUNT TABLETOP REPEATER),VIC,3128.0,2838.8,-1.0,16,-36.95,146.22,915
39339,NEARUM RD ALERT,QLD,3121.0,2504.4,-1.0,5,-25.11,151.85,300
39352,BUNDABERG ALERT,QLD,3121.0,2891.3,-1.0,6,-24.86,152.35,17
33294,YEPPOON THE ESPLANADE,QLD,3118.4,2930.4,-1.0,17,-23.14,150.75,6
14962,YEURALBA RIDGE,NT,3117.6,3299.9,-1.0,7,-14.25,132.74,282
61106,DUNGOG (MONKERAI HILL (URIMBIRRA)),NSW,3116.8,3293.3,-1.0,14,-32.36,151.81,91
9574,MARGARET RIVER,WA,3112.6,3413.4,15.1,74,-33.96,115.06,80
82148,TOO ROUR (MOROKO PARK),VIC,3110.6,2466.3,-1.0,13,-36.83,145.85,590
40832,FOREST HOME TM,QLD,3109.0,2504.9,-1.0,16,-28.20,152.77,110
9111,KARNET,WA,3108.5,3448.6,17.5,41,-32.44,116.08,286
9260,MOUNT SOLUS,WA,3107.0,2727.9,-1.0,16,-32.47,116.21,574
69147,MERIMBULA AIRPORT AWS,NSW,3106.4,2319.1,-1.0,19,-36.91,149.90,2
14224,WANDIE CREEK,NT,3101.0,3267.8,-1.0,5,-13.81,132.20,179
70119,BIG HILL (GLEN DUSK),NSW,3093.0,2199.6,96.4,56,-34.57,150.00,648
63226,LITHGOW (COOERWULL),NSW,3091.2,2327.3,100.0,61,-33.48,150.13,900
91153,BARRINGTON POST OFFICE,TAS,3089.8,3397.0,18.2,45,-41.34,146.28,264
91351,GLENGARRY (GINNS ROAD),TAS,3076.0,3309.3,-1.0,12,-41.38,146.82,217
23891,PICCADILLY (WOODHOUSE),SA,3073.6,3073.6,-1.0,1,-34.98,138.74,441
91365,SPRENT,TAS,3068.2,3205.7,-1.0,7,-41.26,146.16,270
94041,MAATSUYKER ISLAND LIGHTHOUSE,TAS,3061.6,3782.8,16.5,110,-43.66,146.27,147
9613,WARNER GLEN,WA,3058.1,2977.4,65.4,53,-34.14,115.23,30
82068,MITTA MITTA,VIC,3057.6,3099.7,46.1,66,-36.53,147.37,320
3057,CYGNET BAY,WA,3051.7,2316.6,95.3,44,-16.45,123.01,7
91332,RAILTON (DOWBIGGIN STREET),TAS,3049.8,3184.3,-1.0,15,-41.35,146.42,75
23873,CRAFERS WEST,SA,3042.8,2801.5,-1.0,16,-34.99,138.69,570
56080,GLEN MORRISON (MILLBANK),NSW,3040.2,2539.0,97.6,43,-31.22,151.52,1090
14965,UPPER SEVENTEEN MILE CREEK,NT,3029.4,3546.1,-1.0,7,-14.19,132.40,220
41323,MANDALA,QLD,3021.2,2414.3,96.2,27,-28.02,152.29,586
94192,SOUTHPORT (HUON HIGHWAY),TAS,3020.2,3162.6,-1.0,9,-43.41,146.96,120
14981,BRADSHAW - KOOLENDONG VALLEY (DEFENCE),NT,3018.6,3018.6,-1.0,1,-15.19,130.12,42
70025,CROOKWELL POST OFFICE,NSW,3018.4,2610.5,91.4,106,-34.46,149.47,887
61428,MAITLAND AIRPORT AWS,NSW,3010.0,2445.5,-1.0,3,-32.70,151.49,28
40104,KALBAR STATE SCHOOL,QLD,3006.2,2593.7,86.0,94,-27.94,152.62,100
84016,GABO ISLAND LIGHTHOUSE,VIC,2999.1,2770.2,74.3,114,-37.57,149.92,15
61260,CESSNOCK AIRPORT AWS,NSW,2997.4,2221.1,100.0,25,-32.79,151.34,67
64027,COONABARABRAN (BARINA -TM),NSW,2993.8,1976.0,-1.0,11,-31.31,149.20,615
87017,BLACKWOOD,VIC,2989.7,2953.3,48.5,98,-37.47,144.31,547
55308,BENDEMEER (BONNA),NSW,2989.0,2209.6,-1.0,7,-30.88,151.16,830
14730,UPPER WATERHOUSE RIVER,NT,2983.6,3244.9,-1.0,4,-14.11,133.34,262
40094,HARRISVILLE MARY STREET,QLD,2971.2,2383.0,95.9,98,-27.81,152.67,58
70063,MARULAN (GEORGE ST),NSW,2969.5,2181.4,94.3,71,-34.71,150.00,645
14401,WARRUWI AIRPORT,NT,2950.4,3415.2,19.5,78,-11.65,133.38,19
69002,BEGA (NEWTOWN ROAD),NSW,2949.2,2603.9,71.7,100,-36.69,149.84,50
14648,WEST WATERHOUSE,NT,2947.0,2766.5,-1.0,3,-14.14,133.11,322
69144,BLACK RANGE (GRANDVIEW LANE),NSW,2944.4,2265.6,-1.0,5,-36.73,149.84,245
94239,LESLIE VALE,TAS,2943.8,2740.3,-1.0,14,-42.96,147.24,305
14651,SNOWDROP CREEK,NT,2942.0,3233.7,-1.0,7,-13.83,133.33,384
61143,BULGA (DOWN TOWN),NSW,2940.6,2039.8,97.6,43,-32.65,151.02,69
40867,KALBAR TM,QLD,2939.4,2447.7,-1.0,8,-27.94,152.62,80
40811,KILKIVAN TM,QLD,2937.0,1949.8,-1.0,13,-26.08,152.22,29
56083,GLEN MORRISON (BRANGA PLAINS),NSW,2931.7,2667.2,80.0,46,-31.26,151.55,1190
85030,BOOLARRA SOUTH,VIC,2930.5,3215.4,-1.0,15,-38.45,146.27,320
40405,HERVEY BAY AIRPORT,QLD,2929.6,3117.2,-1.0,16,-25.32,152.88,13
56229,GUYRA HOSPITAL,NSW,2921.6,2711.8,75.0,29,-30.21,151.68,1329
56245,BEN LOMOND (BEULAH),NSW,2906.0,2618.0,-1.0,2,-29.96,151.61,1457
83057,MYRTLEFORD (OVENS RESEARCH STATION),VIC,2905.7,3142.9,34.4,33,-36.61,146.79,235
63308,MARRANGAROO (DEFENCE),NSW,2904.2,2671.9,-1.0,2,-33.43,150.14,955
54076,KINGS PLAINS (WINDERMERE),NSW,2900.2,2494.2,-1.0,8,-29.64,151.43,-999
40816,AMBERLEY (DNRM) TM,QLD,2899.0,2295.0,-1.0,16,-27.67,152.70,18
14954,BRADSHAW,NT,2896.8,3201.4,-1.0,12,-14.94,130.81,75
94071,EAGLEHAWK NECK (JETTY ROAD),TAS,2892.2,2646.6,77.5,72,-43.02,147.91,12
23817,ALDGATE,SA,2887.1,3231.3,10.5,39,-35.02,138.74,442
9271,BUNGENDORE,WA,2886.8,2821.7,-1.0,9,-32.19,116.06,200
40891,BROOWEENA TM,QLD,2872.6,2759.5,-1.0,3,-25.60,152.26,164
82162,ROSEWHITE FLD,VIC,2872.2,2903.8,-1.0,14,-36.58,146.82,253
40390,TEDDINGTON WATERWORKS,QLD,2871.9,3234.4,32.3,63,-25.65,152.66,28
14984,MOUNT BUNDEY SOUTH (DEFENCE),NT,2869.4,3053.4,-1.0,2,-13.09,131.85,55
56238,ARMIDALE AIRPORT AWS,NSW,2869.0,2255.0,100.0,20,-30.53,151.62,1079
84023,MARLO,VIC,2863.9,2324.2,100.0,27,-37.79,148.55,42
2009,GIBB RIVER,WA,2863.8,2369.7,90.0,81,-16.42,126.44,488
23842,MOUNT LOFTY,SA,2859.8,2959.4,-1.0,11,-34.98,138.71,685
63201,BIGGA (BIGGA ST),NSW,2855.3,2207.1,-1.0,18,-34.08,149.15,670
69139,BEGA AWS,NSW,2849.0,1940.8,-1.0,17,-36.67,149.82,41
84144,MOUNT NOWA NOWA,VIC,2848.6,2425.8,85.0,21,-37.69,148.09,350
84109,BUCHAN (SNOWY RIVER AT D/S BASIN CREEK),VIC,2847.0,2389.2,-1.0,8,-37.50,148.27,-999
61431,MURRURUNDI (HAYDON STREET),NSW,2844.1,2844.1,-1.0,1,-31.77,150.84,467
200001,MIDDLE PERCY ISLAND,QLD,2840.2,3449.7,-1.0,16,-21.66,150.27,209
9912,FERGUSON VALLEY,WA,2838.2,2706.1,73.0,38,-33.45,115.85,120
85307,JEERALANG NORTH,VIC,2836.2,2236.7,-1.0,7,-38.35,146.44,606
82163,CARBOOR UPPER,VIC,2834.6,2684.6,-1.0,17,-36.64,146.55,298
64008,COONABARABRAN (SHOWGROUNDS),NSW,2834.2,2225.3,89.1,111,-31.28,149.28,520
9113,ROLEYSTONE,WA,2834.1,2969.7,34.9,44,-32.11,116.08,250
86127,WONTHAGGI,VIC,2826.9,2826.1,54.5,102,-38.61,145.60,52
65110,BORENORE (LYNDEN-BRAE),NSW,2816.8,2307.7,-1.0,13,-33.25,148.98,840
61191,BULGA (SOUTH WAMBO),NSW,2813.7,2017.9,100.0,48,-32.61,150.98,80
91219,SCOTTSDALE (WEST MINSTONE ROAD),TAS,2812.4,2919.7,45.2,43,-41.17,147.49,198
9710,BUREKUP,WA,2811.6,2715.4,60.5,44,-33.31,115.82,20
23803,ASHTON CO-OP,SA,2803.0,3152.7,20.7,59,-34.94,138.73,540
40914,MT TARAMPA,QLD,2801.5,1921.2,-1.0,5,-27.49,152.50,74
56018,INVERELL RESEARCH CENTRE,NSW,2798.1,2377.3,92.3,66,-29.78,151.08,664
56032,TENTERFIELD (FEDERATION PARK),NSW,2797.6,2541.5,76.8,109,-29.05,152.02,838
64017,COONABARABRAN AIRPORT AWS,NSW,2785.2,2117.9,-1.0,16,-31.33,149.27,645
40822,GREGOR CREEK TM,QLD,2770.0,2268.0,-1.0,2,-27.00,152.40,83
82151,SEVEN CREEKS AT STRATHBOGIE,VIC,2770.0,2578.3,-1.0,16,-36.86,145.73,470
28013,MAITLAND DOWNS STATION,QLD,2768.5,2693.7,56.3,33,-16.22,144.71,490
94068,WOODBRIDGE,TAS,2765.4,2702.8,66.1,63,-43.15,147.24,3
41454,GIRRAWEEN NAT PARK,QLD,2764.7,2422.8,86.7,31,-28.83,151.94,885
82172,HUON (BARKLEYS CAMP),VIC,2764.0,2383.6,-1.0,8,-36.25,147.10,207
200283,WILLIS ISLAND,QLD,2762.0,3307.1,28.3,93,-16.29,149.97,9
65051,CUMNOCK TM,NSW,2759.0,1867.3,-1.0,7,-32.93,148.76,518
55066,WALLABADAH (WOODTON),NSW,2756.8,2259.5,87.2,95,-31.62,150.84,640
40902,MUSKET FLAT MT ALERT,QLD,2756.0,2571.1,-1.0,16,-25.50,152.38,200
82042,STRATHBOGIE,VIC,2751.2,2889.6,39.8,114,-36.85,145.73,501
82090,DEDERANG,VIC,2744.9,2880.9,39.4,34,-36.48,147.03,261
91245,CAPE GRIM BAPS (COMPARISON),TAS,2744.2,2323.3,86.4,23,-40.68,144.69,94
56028,URALLA (SALISBURY COURT),NSW,2741.5,2287.0,92.4,106,-30.73,151.51,1018
23905,URAIDLA (SUTTON CREEK),SA,2741.0,2783.2,-1.0,10,-34.97,138.74,483
91355,BURNIE (PARK GROVE),TAS,2734.8,2850.1,-1.0,10,-41.05,145.88,99
29139,SWEERS ISLAND,QLD,2730.4,3401.5,-1.0,10,-17.11,139.60,4
82084,BOHO (HONEYSUCKLE CK U/S VIOLET TOWN),VIC,2727.4,2396.3,-1.0,19,-36.71,145.76,330
40823,ROSENTRETERS BRIDGE TM,QLD,2720.0,2033.7,-1.0,12,-27.14,152.33,102
82153,KITHBROOK (BALQUHAIN),VIC,2713.4,2312.9,-1.0,19,-36.82,145.71,580
94175,LUCASTON (BAKERS CREEK ROAD),TAS,2712.0,2536.0,73.5,35,-42.97,147.04,127
9030,MUNDARING,WA,2709.1,3202.5,10.5,106,-31.90,116.16,300
56242,INVERELL (RAGLAN ST),NSW,2703.0,2358.4,95.8,25,-29.78,151.11,582
2068,MARION DOWNS,WA,2702.6,2557.6,-1.0,11,-17.07,126.85,460
63271,TUENA (WYOMING),NSW,2701.5,2284.9,89.8,60,-34.04,149.36,510
90187,BOONAH,VIC,2698.6,2464.3,-1.0,15,-38.41,143.98,-999
85099,POUND CREEK,VIC,2696.2,2642.9,-1.0,7,-38.63,145.81,3
39242,BROADMEADOWS,QLD,2695.6,2897.7,43.1,52,-23.40,150.62,15
63061,TRUNKEY (OLD POST OFFICE),NSW,2693.6,1885.0,-1.0,12,-33.82,149.32,840
41464,OAKINGTON,QLD,2692.7,2332.5,79.0,39,-28.15,152.33,602
41175,APPLETHORPE,QLD,2690.2,2270.5,81.0,43,-28.62,151.95,872
35186,BLACKDOWN TABLELAND AL,QLD,2680.4,2909.7,-1.0,6,-23.77,149.12,952
40120,LOWOOD DON ST,QLD,2677.7,2386.4,80.4,103,-27.46,152.57,51
61192,MUSWELLBROOK (SPRING CREEK (CASTLE VALE),NSW,2674.0,2020.3,93.1,30,-32.21,150.74,259
9990,BOYANUP NORTH,WA,2667.2,2277.5,-1.0,11,-33.48,115.74,43
55309,DUNGOWAN (GLENDOWER MOUNTAIN (LECONFIELD,NSW,2666.0,2442.8,-1.0,11,-31.15,151.23,1050
70040,GOULBURN (CHERRYTON),NSW,2662.7,1924.9,100.0,44,-34.69,149.55,725
55195,GOWRIE (LALLYBROCH),NSW,2662.5,2102.6,100.0,22,-31.44,150.89,638
91346,LILYDALE (TORWOOD),TAS,2659.6,2765.4,-1.0,2,-41.23,147.21,150
94020,DOVER,TAS,2658.5,2588.7,65.2,67,-43.33,147.00,20
91348,PIPERS RIVER (BAY OF FIRES),TAS,2653.0,2634.4,-1.0,9,-41.11,147.10,70
39256,DINGLE DELL,QLD,2650.8,2109.1,-1.0,14,-25.15,151.63,257
86104,SCORESBY RESEARCH INSTITUTE,VIC,2649.8,2607.7,54.0,51,-37.87,145.26,80
91331,CAPE GRIM,TAS,2648.8,2654.9,-1.0,9,-40.68,144.69,86
91292,SMITHTON AERODROME,TAS,2644.4,2736.3,-1.0,16,-40.83,145.08,8
23801,LENSWOOD,SA,2643.0,3001.1,11.9,43,-34.95,138.81,480
39303,CHILDERS SOUTH,QLD,2640.0,2615.3,58.1,32,-25.26,152.28,95
56008,DEEPWATER POST OFFICE,NSW,2639.0,2345.4,83.8,112,-29.44,151.85,970
73050,BOWNING (WANGANUI),NSW,2635.0,2065.9,91.9,63,-34.76,148.83,560
9982,HENTY BROOK,WA,2634.2,2403.0,-1.0,18,-33.39,115.85,240
56037,ARMIDALE (TREE GROUP NURSERY),NSW,2633.8,2184.8,100.0,20,-30.52,151.67,987
65096,MANDAGERY (RAWENE),NSW,2632.8,1979.4,-1.0,9,-33.27,148.39,420
2056,KUNUNURRA AERO,WA,2629.4,2522.2,59.5,43,-15.78,128.71,44
55016,DANGLEMAH (RUTHERGLEN),NSW,2629.0,2238.3,93.2,45,-31.00,151.23,655
63293,OBERON (JENOLAN CAVES ROAD),NSW,2623.0,2150.4,-1.0,18,-33.74,149.88,1190
91107,WYNYARD AIRPORT,TAS,2617.8,2983.5,7.5,41,-41.00,145.73,12
9752,DENBARKER,WA,2616.5,2279.6,100.0,28,-34.75,117.34,205
55136,WOOLBROOK (WOOLBROOK ROAD),NSW,2615.2,2316.1,85.5,56,-30.97,151.35,925
56001,SAPPHIRE (ARGYLE),NSW,2614.3,2277.8,87.9,92,-29.72,151.36,795
88023,LAKE EILDON,VIC,2613.4,2546.7,64.5,108,-37.23,145.91,230
3099,LEOPOLD DOWNS TBRG,WA,2613.0,2193.2,-1.0,4,-17.75,125.38,220
63302,OBERON (MOUNT DAVID),NSW,2613.0,1807.7,-1.0,13,-33.83,149.61,1070
9000,ARALUEN,WA,2611.2,3228.7,-1.0,18,-32.12,116.10,130
69049,NERRIGA COMPOSITE,NSW,2610.0,2277.8,83.8,75,-35.12,150.08,630
41529,TOOWOOMBA AIRPORT,QLD,2608.8,2137.5,-1.0,18,-27.54,151.91,641
30000,ABINGDON DOWNS STATION,QLD,2603.7,2607.7,52.9,52,-17.61,143.18,61
9629,MARRIWOOD,WA,2600.7,2727.8,41.2,52,-33.45,115.73,30
40763,WIVENHOE DAM,QLD,2597.4,2096.3,87.5,25,-27.40,152.61,73
70016,CAPTAINS FLAT (FOXLOW ST),NSW,2592.4,2222.2,80.6,68,-35.59,149.45,850
98017,KING ISLAND AIRPORT,TAS,2590.4,2554.8,58.6,30,-39.88,143.89,35
41095,STANTHORPE LESLIE PARADE,QLD,2589.8,2243.7,88.5,105,-28.66,151.93,784
70308,TORRENS (DARKE ST),NSW,2589.2,2023.7,100.0,33,-35.38,149.09,653
94252,SOUTH HOBART (HILLBOROUGH ROAD),TAS,2588.9,2304.4,-1.0,9,-42.90,147.30,160
90060,NULLAWARRE,VIC,2587.8,2647.6,39.2,103,-38.47,142.75,55
92030,PIONEER (MAIN ROAD),TAS,2586.2,2870.3,21.5,94,-41.08,147.94,120
61430,SINGLETON DEFENCE AWS,NSW,2585.8,2053.5,-1.0,3,-32.70,151.16,125
85293,CAPE LIPTRAP (ILLAWONG),VIC,2584.0,2647.0,-1.0,7,-38.90,145.94,95
39326,GLADSTONE AIRPORT,QLD,2582.8,2580.8,52.0,26,-23.87,151.22,17
90171,PORTLAND (CASHMORE AIRPORT),VIC,2581.8,2511.5,73.0,38,-38.31,141.47,81
9978,JINDONG,WA,2577.2,2332.5,-1.0,12,-33.76,115.21,42
70242,ARANDA (BINDAGA ST),NSW,2576.8,1991.2,100.0,37,-35.26,149.07,630
92114,FRIENDLY BEACHES,TAS,2573.8,2088.5,-1.0,11,-42.00,148.28,55
14650,CAVE CREEK STATION,NT,2573.7,2695.8,-1.0,4,-14.91,133.13,125
83095,ANGLERS REST (BUNDARRAH VALLEY),VIC,2567.9,2468.2,-1.0,5,-37.00,147.41,795
91267,MEANDER (MEANDER RIVER),TAS,2567.0,2924.2,-1.0,7,-41.65,146.62,292
9842,JARRAHWOOD,WA,2563.0,2795.3,7.3,42,-33.80,115.67,130
87075,BULLENGAROOK EAST,VIC,2561.9,2336.7,66.7,58,-37.48,144.51,512
39128,BUNDABERG AERO,QLD,2559.8,3078.4,16.3,50,-24.91,152.32,31
56237,INVERELL (ELSMORE VILLAGE),NSW,2559.8,1912.4,-1.0,13,-29.80,151.27,700
54027,DELUNGRA (PEARSBY HALL),NSW,2558.6,1993.9,97.5,80,-29.56,150.89,597
70340,NICHOLLS (GUNGAHLIN LAKES),NSW,2557.4,2074.4,-1.0,6,-35.18,149.11,605
72171,WOOMARGAMA POST OFFICE,NSW,2557.3,2364.4,-1.0,6,-35.83,147.25,305
30158,GREEN HILLS,QLD,2557.2,2111.1,-1.0,16,-18.46,143.30,240
9831,KING RIVER,WA,2555.5,2321.7,-1.0,7,-34.92,117.89,25
3098,MOUNT HOUSE AIRSTRIP,WA,2555.2,2727.6,-1.0,15,-17.05,125.71,270
88061,WOODEND,VIC,2554.2,2452.1,61.6,87,-37.36,144.54,560
36139,SURBITON STATION,QLD,2549.1,1655.3,95.6,92,-22.99,146.62,183
62009,CASSILIS (DALKEITH),NSW,2548.4,1876.3,99.0,96,-32.00,149.99,420
69017,MONTAGUE ISLAND LIGHTHOUSE,NSW,2548.0,2549.7,56.6,54,-36.25,150.23,52
94261,FRANKLIN (SOUTH),TAS,2548.0,2585.9,-1.0,6,-43.12,146.99,33
84142,GELANTIPY,VIC,2547.0,2370.4,63.6,23,-37.22,148.26,755
63287,BATHURST STANLEY STREET (MACQUARIE RIVER,NSW,2543.0,1942.5,-1.0,13,-33.41,149.58,650
39068,MOUNT LARCOM POST OFFICE,QLD,2542.6,2677.8,43.3,91,-23.81,150.98,59
55164,WEABONGA (STONELEIGH),NSW,2537.8,2455.2,56.1,83,-31.18,151.30,690
91290,GOLDEN VALLEY (BRODIES ROAD),TAS,2536.8,2823.6,-1.0,15,-41.63,146.70,487
9066,GIDGEGANNUP,WA,2536.6,2654.5,42.5,41,-31.79,116.20,290
91029,DUNORLAN (SHARMANS ROAD),TAS,2535.2,2997.2,7.7,53,-41.50,146.54,274
31158,GLEN HARDING,QLD,2531.5,2248.0,81.1,54,-18.25,145.13,650
84012,DARGO,VIC,2526.0,2206.7,83.6,62,-37.45,147.25,205
90021,COBDEN (POST OFFICE),VIC,2520.4,2526.9,46.9,114,-38.33,143.08,134
63297,TARANA (FISH RIVER),NSW,2514.0,1644.4,-1.0,16,-33.57,149.91,780
82154,SEVEN CREEKS AT D/S POLLY MCQUINNS WEIR,VIC,2512.8,2301.4,-1.0,19,-36.89,145.68,440
54117,COBBADAH (ROCKY GLEN),NSW,2507.8,2330.5,71.4,29,-30.22,150.72,646
28004,PALMERVILLE,QLD,2506.0,3059.4,16.0,107,-16.00,144.08,204
32169,GLENEAGLE ALERT,QLD,2506.0,2300.1,-1.0,19,-18.19,145.33,556
9513,BRUNSWICK JUNCTION,WA,2505.2,2975.5,9.6,95,-33.21,115.85,30
9852,CHEYNE BEACH,WA,2503.6,2161.4,-1.0,9,-34.89,118.40,60
31188,MAREEBA TM,QLD,2502.0,2498.2,-1.0,12,-17.00,145.43,381
73023,KANGIARA (LAVERSTOCK),NSW,2501.9,2098.0,88.2,86,-34.61,148.79,560
68215,GREENSTEAD (WINGECARRIBEE RIVER),NSW,2499.0,1709.5,-1.0,14,-34.42,150.20,-999
70247,CANBERRA (AUSTRALIAN NATIONAL BOTANIC GA,NSW,2493.6,2066.3,93.8,49,-35.28,149.11,585
14703,CENTRE ISLAND,NT,2492.2,3105.8,12.5,41,-15.74,136.82,12
9964,ROCKY GULLY,WA,2491.6,2199.4,-1.0,15,-34.57,117.01,250
62107,BYLONG (GLENVIEW),NSW,2491.0,1975.7,-1.0,7,-32.47,150.11,566
9633,TAMAR,WA,2488.0,2248.7,93.0,44,-34.86,118.11,90
70263,GOULBURN TAFE,NSW,2486.0,1891.0,100.0,42,-34.75,149.70,670
90181,CAMPERDOWN,VIC,2484.4,2316.3,-1.0,6,-38.24,143.14,195
55049,QUIRINDI POST OFFICE,NSW,2483.7,2031.2,94.0,117,-31.51,150.68,390
70335,HILLVIEW (SHOALHAVEN RIVER),NSW,2483.0,1711.5,-1.0,19,-35.20,149.96,550
14932,TINDAL RAAF,NT,2481.2,3224.4,3.3,31,-14.52,132.38,134
9913,EKAMURRA,WA,2479.0,2737.1,0.0,29,-33.69,115.84,240
14652,MARANBOY HILL,NT,2473.6,2563.8,-1.0,4,-14.53,132.80,232
109518,PRESTON VALE VINEYARD,WA,2472.2,2330.9,-1.0,3,-33.56,116.04,109
84140,NICHOLSON WINERY,VIC,2470.4,2113.8,100.0,20,-37.80,147.76,42
41473,PRATTEN CONDAMINE RIVER,QLD,2469.7,1932.6,-1.0,13,-28.10,151.81,417
96033,LIAWENEE,TAS,2468.0,2693.3,-1.0,6,-41.90,146.67,1057
82165,STUMP HILL (BARJARG),VIC,2467.2,2178.2,-1.0,10,-36.95,146.01,312
14059,FOELSCHE HEADLAND,NT,2463.8,3173.2,-1.0,9,-14.08,131.81,203
83055,DINNER PLAIN (MOUNT HOTHAM AIRPORT),VIC,2463.2,2411.9,-1.0,19,-37.05,147.33,1295
86377,UPPER PLENTY,VIC,2463.1,2267.9,65.4,27,-37.42,145.08,325
39351,UPPER ULAM ROAD,QLD,2461.7,2448.1,-1.0,8,-23.62,150.54,-999
33264,BOWEN PUMP STATION ALERT,QLD,2461.0,2114.6,-1.0,7,-20.01,148.20,5
86393,CAPE SCHANCK,VIC,2459.3,2459.3,-1.0,1,-38.46,144.90,145
62013,GULGONG POST OFFICE,NSW,2454.2,1919.3,94.5,111,-32.36,149.53,475
3032,DERBY AERO,WA,2453.8,2127.5,76.3,60,-17.37,123.66,6
63298,CHIFLEY DAM (CAMPBELLS RIVER (UPSTREAM C,NSW,2450.0,1793.0,-1.0,10,-33.61,149.70,715
95079,LACHLAN (WILLIAMS ROAD),TAS,2447.6,2313.9,-1.0,4,-42.85,147.03,168
63073,ROCKLEY POST OFFICE,NSW,2446.1,2086.8,78.3,93,-33.69,149.56,820
40903,PACIFIC HAVEN ALERT,QLD,2445.0,2561.6,-1.0,8,-25.24,152.53,10
70330,GOULBURN AIRPORT AWS,NSW,2444.2,1658.6,100.0,26,-34.81,149.73,640
70307,BRUCE (AUSTRALIAN INSTITUTE OF SPORT),NSW,2438.4,2118.3,-1.0,18,-35.25,149.11,610
94155,TASMAN ISLAND,TAS,2436.6,2415.0,-1.0,10,-43.24,148.00,240
9989,THOMSON BROOK,WA,2435.4,2366.7,-1.0,17,-33.65,115.96,260
9642,WOKALUP,WA,2434.1,2922.4,2.2,46,-33.13,115.88,30
91266,KIMBERLEY (MERSEY RIVER),TAS,2433.2,2302.2,-1.0,3,-41.40,146.50,60
9258,ANKETELL,WA,2432.3,2376.9,-1.0,15,-32.22,115.88,18
72023,HUME RESERVOIR,NSW,2430.0,2076.8,89.0,92,-36.10,147.03,184
65020,MANILDRA (GEORGE ST),NSW,2428.7,1808.0,97.8,91,-33.18,148.69,438
9776,ASTON DOWNS ALERT,WA,2428.2,2337.9,-1.0,13,-33.79,115.32,80
84150,LAKES ENTRANCE (EASTERN BEACH ROAD),VIC,2427.4,2099.0,-1.0,11,-37.87,148.01,4
9628,COLLIE,WA,2425.7,2797.2,17.0,107,-33.36,116.15,204
64029,DUNEDOO (SHELL),NSW,2422.6,1542.6,-1.0,12,-32.02,149.39,390
84015,ENSAY,VIC,2422.1,2121.2,85.4,104,-37.38,147.84,240
63264,NEWBRIDGE (STRINGYBARK RD),NSW,2419.0,2101.7,-1.0,3,-33.57,149.38,952
9619,WILGARRUP,WA,2418.9,2777.0,29.6,99,-34.15,116.20,240
9917,PERIVALE ORCHARD,WA,2416.6,2504.8,-1.0,14,-33.71,115.79,100
86213,ROSEBUD (COUNTRY CLUB),VIC,2414.9,2359.8,56.5,63,-38.38,144.90,20
85168,BRIAGOLONG,VIC,2413.9,2017.6,92.9,29,-37.83,147.08,55
23875,PARAWA (SECOND VALLEY FOREST AWS),SA,2408.2,2462.0,56.0,26,-35.57,138.29,341
91186,FORTHSIDE RESEARCH STATION,TAS,2407.7,2870.7,12.8,40,-41.20,146.27,127
64009,DUNEDOO POST OFFICE,NSW,2407.2,1838.4,95.2,105,-32.02,149.40,388
61097,MOONAN FLAT (HIGH ST),NSW,2403.1,2076.2,88.2,77,-31.92,151.24,423
55257,DURI (DUNGOWAN RD),NSW,2402.4,2078.3,-1.0,16,-31.22,150.82,456
23865,LENSWOOD (STRINGYBARK),SA,2390.6,2382.2,-1.0,19,-34.89,138.81,547
91100,THREE HUMMOCK ISLAND,TAS,2390.4,2657.4,-1.0,12,-40.45,144.84,8
90077,TERANG,VIC,2389.4,2357.0,52.3,112,-38.24,142.92,131
92120,ST HELENS AERODROME,TAS,2389.3,2011.5,-1.0,11,-41.34,148.28,48
39168,WOODGATE STORE,QLD,2387.0,2994.9,10.0,21,-25.10,152.56,5
86088,OAKLEIGH (METROPOLITAN GOLF CLUB),VIC,2384.2,2229.5,76.2,85,-37.91,145.09,81
14299,NGUKURR AIRPORT,NT,2383.4,2236.6,-1.0,8,-14.72,134.75,15
14638,GORRIE,NT,2379.0,2697.7,29.6,28,-15.53,132.65,175
31196,MT GARNET ALERT,QLD,2379.0,1986.5,-1.0,13,-17.70,145.15,663
33286,CLARE ALERT,QLD,2379.0,2672.3,-1.0,10,-19.76,147.24,9
23799,PROSPECT HILL,SA,2376.7,2521.6,40.7,28,-35.22,138.73,360
54146,HAYSTACK (BEARDY RIVER),NSW,2373.0,1852.4,-1.0,16,-29.23,151.38,-999
9518,CAPE LEEUWIN,WA,2372.8,2868.3,12.6,120,-34.37,115.14,13
3094,WINDJANA GORGE,WA,2372.6,2460.2,-1.0,3,-17.42,124.92,95
86369,SPRINGVALE (SANDOWN),VIC,2372.0,2317.3,-1.0,9,-37.95,145.17,41
14704,MCARTHUR RIVER MINE AIRPORT,NT,2369.8,2272.3,63.2,39,-16.44,136.08,40
9617,BRIDGETOWN,WA,2369.2,2270.2,-1.0,11,-33.95,116.13,179
109511,PORONGURUPS,WA,2369.2,2252.8,-1.0,6,-34.66,117.89,250
62101,MUDGEE AIRPORT AWS,NSW,2366.8,2028.5,94.7,20,-32.56,149.61,471
9997,RAVENSCLIFFE ALERT,WA,2365.6,2235.3,-1.0,13,-33.76,115.84,200
94220,GROVE (RESEARCH STATION),TAS,2365.2,2185.8,-1.0,16,-42.98,147.08,65
33170,MYSTERY PARK,QLD,2365.0,3048.4,20.8,25,-22.36,149.37,40
88162,WALLAN (KILMORE GAP),VIC,2364.2,2030.6,81.8,23,-37.38,144.97,528
31210,MAREEBA AIRPORT,QLD,2362.2,2501.7,52.6,20,-17.07,145.43,472
86297,MOUNT WAVERLEY (RIVERSDALE GOLF CLUB),VIC,2361.7,2307.3,-1.0,2,-37.87,145.12,92
56050,TENTERFIELD (ABERFELDIE),NSW,2361.2,2439.9,36.7,50,-29.02,151.75,680
65103,FORBES AIRPORT AWS,NSW,2357.8,1549.4,100.0,21,-33.36,147.92,230
61287,MERRIWA (ROSCOMMON),NSW,2357.4,1808.0,100.0,33,-32.19,150.17,375
65034,WELLINGTON (D&J RURAL),NSW,2357.1,1845.5,93.7,112,-32.56,148.95,305
23866,VERDUN,SA,2356.4,2361.7,-1.0,19,-35.01,138.80,315
69137,GREEN CAPE AWS,NSW,2351.6,1897.4,-1.0,17,-37.26,150.05,19
92019,LAKE LEAKE (ELIZABETH RIVER),TAS,2351.0,2460.8,44.0,117,-42.01,147.80,575
64015,MENDOORAN POST OFFICE,NSW,2350.8,1722.9,94.0,85,-31.82,149.12,350
41445,LESLIE DAM,QLD,2346.6,1982.6,90.6,86,-28.21,151.92,478
9971,ACTON PARK,WA,2346.2,2385.5,-1.0,14,-33.78,115.41,120
54003,BARRABA (CLIFTON LANE),NSW,2344.7,2060.4,80.7,110,-30.38,150.61,499
84003,BRUTHEN (POST OFFICE),VIC,2343.2,2242.4,68.0,104,-37.71,147.83,22
94270,NUBEENA (MARYS ROAD),TAS,2342.0,2182.3,-1.0,2,-43.09,147.73,72
94198,CAPE BRUNY (CAPE BRUNY),TAS,2341.8,2289.0,-1.0,12,-43.49,147.14,60
23734,MOUNT BOLD RESERVOIR,SA,2339.6,2305.2,53.9,79,-35.12,138.68,251
62036,ULAN WATER,NSW,2337.0,1949.0,92.5,68,-32.28,149.74,420
85270,MITCHELL RIVER @ GLENALADALE,VIC,2336.8,2100.7,-1.0,14,-37.76,147.37,40
63022,COWRA AG RESEARCH STATION,NSW,2336.6,1847.1,92.3,92,-33.80,148.70,360
23108,LONGWOOD ALERT,SA,2329.2,2561.9,-1.0,16,-35.05,138.73,458
86068,VIEWBANK,VIC,2327.6,1967.2,-1.0,14,-37.74,145.10,66
61392,MURRURUNDI GAP AWS,NSW,2326.8,2130.7,-1.0,17,-31.74,150.79,729
86373,RHYLL,VIC,2323.4,2084.9,88.0,26,-38.46,145.31,13
14306,MERLIN MINE,NT,2321.0,2081.5,-1.0,7,-16.82,136.33,190
90186,WARRNAMBOOL AIRPORT NDB,VIC,2320.8,2224.7,-1.0,18,-38.29,142.45,71
94064,WATTLE HILL,TAS,2319.8,1963.7,93.5,78,-42.76,147.62,104
23720,HAHNDORF,SA,2317.6,2527.1,21.9,106,-35.02,138.81,341
63005,BATHURST AGRICULTURAL STATION,NSW,2316.4,1914.3,90.1,112,-33.43,149.56,713
2044,LAKE ARGYLE RESORT,WA,2312.7,2177.8,64.5,32,-16.11,128.74,163
61373,PARKVILLE (KINGDON PONDS),NSW,2309.2,1729.1,-1.0,16,-31.96,150.86,200
82146,GOORAM (MORELLA),VIC,2309.0,2159.1,-1.0,16,-36.93,145.58,320
55325,TAMWORTH AIRPORT AWS,NSW,2307.4,1934.9,84.6,27,-31.07,150.84,395
70005,BOMBALA (THERRY STREET),NSW,2307.0,1963.9,85.0,114,-36.91,149.24,705
54029,WARIALDA POST OFFICE,NSW,2305.9,2023.0,81.1,112,-29.54,150.58,320
3080,CURTIN AERO,WA,2305.8,2502.2,-1.0,19,-17.58,123.83,78
82096,CREIGHTONS CREEK (BARONGA (CREIGHTON\'S C,VIC,2304.2,2513.8,26.4,73,-36.90,145.52,276
41540,BEARDY JUNCTION,QLD,2302.8,2024.4,-1.0,17,-29.17,151.34,326
73014,GRENFELL (MANGANESE RD),NSW,2300.5,1845.9,90.2,113,-33.89,148.15,390
65098,NEUREA (FERNFIELD),NSW,2299.6,1602.7,-1.0,3,-32.68,148.92,335
9182,MAIDA VALE,WA,2287.7,2382.1,23.8,22,-31.97,116.02,100
41100,TEXAS POST OFFICE,QLD,2286.6,1914.2,89.1,102,-28.85,151.17,295
109519,VASSE,WA,2284.3,2284.3,-1.0,1,-33.69,115.29,-999
9519,CAPE NATURALISTE,WA,2283.0,2385.8,32.1,113,-33.54,115.02,109
61185,HUNTER RIVER (GLENBAWN DAM D/S),NSW,2279.2,1855.5,-1.0,3,-32.11,150.99,230
82145,GOORAM (HILLSIDE),VIC,2279.2,2095.4,-1.0,19,-36.88,145.58,255
99014,MEMANA (BABEL FARM),TAS,2279.1,2337.3,43.6,40,-40.02,148.18,12
23910,KANGARILLA (SADDLEBAGS),SA,2278.8,2257.1,-1.0,14,-35.13,138.69,385
72101,HOLBROOK (NARRABILLA),NSW,2276.0,2080.1,80.0,51,-35.71,147.49,315
23704,BELAIR (STATE FLORA NURSERY),SA,2274.2,2358.0,34.5,98,-35.01,138.65,305
73138,YOUNG AIRPORT,NSW,2273.2,1815.6,87.5,25,-34.25,148.25,380
9007,CHIDLOW,WA,2272.2,2668.3,18.6,87,-31.86,116.27,300
61363,SCONE AIRPORT AWS,NSW,2272.2,1828.0,92.0,26,-32.03,150.83,221
85009,TRARALGON EPA,VIC,2271.8,1894.9,-1.0,16,-38.20,146.53,-999
109513,MUMBALLUP ORGANICS,WA,2270.0,2237.6,-1.0,5,-33.54,116.12,246
31180,MOUNT CARBINE TOWNSHIP,QLD,2269.3,2807.2,-1.0,6,-16.53,145.13,365
96049,TODS CORNER,TAS,2262.3,2187.3,-1.0,4,-41.97,146.80,1065
23882,LOBETHAL (MAIDMENT ROAD),SA,2262.2,2382.7,-1.0,19,-34.87,138.91,497
23887,KUITPO FOREST RESERVE,SA,2260.2,2096.5,-1.0,13,-35.17,138.68,365
41516,ALLORA TM,QLD,2258.0,1584.5,-1.0,4,-28.03,152.02,471
54039,BINGARA (KEERA),NSW,2255.2,2088.8,72.2,109,-29.99,150.78,333
35081,WOLEEBEE NEVASA,QLD,2253.6,1846.5,92.9,86,-26.29,149.83,273
39054,JAMBIN POST OFFICE,QLD,2253.2,2067.3,73.7,77,-24.20,150.37,142
94222,KINGSTON (GREENHILL DRIVE),TAS,2248.6,2067.4,-1.0,18,-42.97,147.30,54
51066,EUMUNGERIE POST OFFICE,NSW,2246.5,1688.5,98.4,62,-31.95,148.62,302
23921,MT BOLD (SCOTT CREEK ALERT),SA,2244.6,2269.5,-1.0,6,-35.10,138.67,220
3075,DERBY MAIN ROADS,WA,2242.8,2153.8,-1.0,13,-17.31,123.65,18
61372,BLANDFORD (PAGES RIVER),NSW,2242.0,2032.7,-1.0,15,-31.80,150.93,450
65019,GOOLOOGONG POST OFFICE,NSW,2241.0,1816.2,89.2,75,-33.61,148.44,265
30107,ROBIN HOOD STATION,QLD,2240.0,2223.5,65.7,36,-18.84,143.71,460
23731,CUDLEE CREEK (MILLBROOK RESERVOIR),SA,2236.7,2563.7,10.5,96,-34.83,138.82,315
92027,ORFORD (AUBIN COURT),TAS,2236.7,2016.2,70.4,55,-42.55,147.88,14
53033,PALLAMALLAWA POST OFFICE,NSW,2232.4,1841.7,88.7,107,-29.47,150.14,230
9172,JANDAKOT AERO,WA,2229.6,2474.6,29.0,32,-32.10,115.88,30
55313,GOONOO GOONOO (GOONOO GOONOO CREEK),NSW,2229.2,1864.7,-1.0,15,-31.27,150.92,450
41503,WARWICK (SCOTS COLLEGE) TM,QLD,2229.0,1660.5,-1.0,10,-28.22,152.05,446
9987,PAYNEDALE ALERT,WA,2227.6,2223.6,-1.0,17,-33.64,115.70,100
9988,HAPPY VALLEY,WA,2226.8,2197.3,-1.0,14,-33.68,115.62,100
72160,ALBURY AIRPORT AWS,NSW,2226.8,1868.5,90.5,22,-36.07,146.95,164
83090,OMEO,VIC,2226.2,1969.9,-1.0,10,-37.10,147.60,690
70333,NARRAWA (LACHLAN RIVER),NSW,2223.6,1794.7,-1.0,10,-34.40,149.09,460
9278,YOONGARILLUP TBRG,WA,2223.2,2108.0,-1.0,4,-33.74,115.47,54
87042,MEREDITH,VIC,2220.9,2093.2,69.0,88,-37.83,144.06,355
73142,COOTAMUNDRA AIRPORT,NSW,2219.3,1801.6,-1.0,19,-34.63,148.04,335
41534,WARWICK ALERT,QLD,2216.0,1683.0,-1.0,19,-28.21,152.03,448
54104,PINDARI DAM,NSW,2215.6,2201.0,50.0,41,-29.39,151.24,462
88010,WILLOWMAVIN (AVALON STATION),VIC,2214.6,1975.8,-1.0,16,-37.25,144.86,381
65111,COWRA AIRPORT AWS,NSW,2213.8,1644.0,-1.0,9,-33.84,148.65,300
9967,NARRIKUP WEST,WA,2212.5,2105.8,-1.0,8,-34.78,117.65,130
70346,SUTTON (GOOLABRI DVE),NSW,2211.9,1868.2,-1.0,7,-35.19,149.25,655
94125,MARGATE (SUNNYSIDE),TAS,2210.2,2206.7,56.1,42,-43.02,147.25,24
41491,BARONGAROOK TM,QLD,2205.0,1520.0,-1.0,5,-28.43,151.47,20
40455,DUNOLLIE,QLD,2204.0,2104.5,73.8,66,-25.85,151.37,152
90184,CAPE NELSON LIGHTHOUSE,VIC,2201.8,2122.3,65.2,24,-38.43,141.54,45
29063,NORMANTON AIRPORT,QLD,2197.6,2397.4,-1.0,19,-17.69,141.07,18
94040,LYMINGTON (FATTYS LANE),TAS,2197.6,2346.6,34.7,76,-43.20,147.07,26
86361,CERBERUS,VIC,2195.4,2120.8,71.4,22,-38.36,145.18,13
70351,CANBERRA AIRPORT,NSW,2193.0,1840.7,-1.0,11,-35.31,149.20,577
61339,CLARENCETOWN (MILL DAM FALLS (WILLIAMS R,NSW,2192.8,2481.0,-1.0,11,-32.56,151.80,10
91227,DELORAINE RAILWAY BRIDGE (MEANDER RIVER),TAS,2192.2,2388.2,-1.0,9,-41.53,146.66,240
41359,OAKEY AERO,QLD,2187.8,1839.1,85.7,50,-27.40,151.74,406
85151,YARRAM AIRPORT,VIC,2187.8,1908.6,-1.0,12,-38.56,146.75,18
50117,ALECTOWN (BRIDGEWATER),NSW,2187.0,1734.2,100.0,25,-32.90,148.28,341
50119,ALECTOWN (VANVILLA),NSW,2186.8,1785.3,94.1,35,-32.94,148.24,350
85166,STRATFORD,VIC,2181.1,1909.9,96.9,33,-37.96,147.08,25
32196,TOWNSVILLE- AIR WEAPONS RANGE (DEFENCE),QLD,2181.0,2440.5,-1.0,2,-19.30,146.24,386
23733,MOUNT BARKER,SA,2180.0,2277.4,36.2,117,-35.07,138.85,359
86210,BONBEACH (CARRUM (PATTERSON RIVER COUNTR,VIC,2178.4,2129.8,60.9,47,-38.07,145.13,5
82167,GRETA WEST,VIC,2172.8,2060.3,-1.0,16,-36.53,146.22,174
14808,BRADSHAW - ANGALLARI VALLEY (DEFENCE),NT,2170.8,2157.8,-1.0,2,-15.44,130.57,60
94263,ABELS BAY (SANDREEF ROAD),TAS,2170.6,2028.7,-1.0,5,-43.23,147.10,30
23862,LOBETHAL (GRAEBER),SA,2170.4,2473.0,-1.0,12,-34.91,138.88,432
90063,PENSHURST (POST OFFICE),VIC,2161.5,2170.1,46.3,109,-37.88,142.29,233
55202,GUNNEDAH AIRPORT AWS,NSW,2160.2,1660.8,-1.0,15,-30.95,150.25,263
9994,COLLIE EAST,WA,2159.2,2131.1,-1.0,11,-33.36,116.17,200
23735,MOUNT COMPASS,SA,2156.9,2511.9,1.4,75,-35.35,138.62,229
14723,BORROLOOLA AIRPORT,NT,2156.0,2831.6,14.3,22,-16.08,136.30,16
93049,MOUNT SEYMOUR,TAS,2153.0,1794.1,-1.0,8,-42.37,147.46,628
88164,EILDON FIRE TOWER,VIC,2152.6,1956.6,85.0,21,-37.21,145.84,637
94219,CYGNET (SYNOTTS ROAD),TAS,2148.6,2260.2,-1.0,12,-43.15,147.05,120
50031,PEAK HILL POST OFFICE,NSW,2147.5,1689.5,91.4,117,-32.72,148.19,285
39334,HAZELDEAN,QLD,2146.8,2496.8,-1.0,18,-24.02,150.96,66
35039,GILIGULGUL TM,QLD,2146.0,1709.4,-1.0,8,-26.36,150.05,367
55044,BOGGABRI (RETREAT),NSW,2146.0,1746.4,89.4,105,-30.70,150.28,302
82144,KELVIN VIEW (WATERHOUSE RESERVOIR),VIC,2144.8,1925.7,-1.0,16,-36.82,145.64,300
3003,BROOME AIRPORT,WA,2140.2,1874.4,72.2,80,-17.95,122.24,7
91039,NORTHDOWN (HAMLEY),TAS,2140.2,2405.7,14.8,89,-41.18,146.48,75
92045,LARAPUNA (EDDYSTONE POINT),TAS,2138.8,2288.1,29.2,97,-40.99,148.35,20
63076,SOFALA OLD POST OFFICE,NSW,2137.8,1926.7,75.5,103,-33.08,149.69,579
88154,GLENBURN (HIGHWOOD TBRG),VIC,2134.8,2134.8,-1.0,1,-37.39,145.48,313
2022,MOUNT WINIFRED,WA,2134.6,1971.7,-1.0,9,-18.02,126.30,180
82015,ELDORADO,VIC,2133.2,2004.7,71.7,114,-36.31,146.52,195
86232,MELBOURNE BOTANICAL GARDENS,VIC,2131.6,2070.8,56.7,31,-37.83,144.98,29
40904,RAILWAY BRIDGE ALERT,QLD,2131.0,2582.7,-1.0,19,-25.28,152.51,10
39067,MOONMERA,QLD,2126.2,2313.4,40.4,100,-23.58,150.40,137
26018,MILLICENT,SA,2125.7,2256.4,25.9,109,-37.59,140.34,20
83019,MANSFIELD (POST OFFICE),VIC,2124.2,2122.2,49.1,107,-37.05,146.09,316
39000,ABERCORN,QLD,2122.2,2038.7,69.7,67,-25.13,151.13,200
86350,WALLAN,VIC,2121.7,2025.8,68.0,26,-37.42,144.98,341
89104,LEIGH RIVER @ MOUNT MERCER,VIC,2120.4,1724.7,-1.0,11,-37.81,143.92,-999
70328,BOMBALA AWS,NSW,2118.6,1687.4,90.9,23,-37.00,149.23,761
88123,KYNETON,VIC,2117.7,2352.1,24.3,38,-37.25,144.44,526
92155,BUCKLAND (BROCKLEY ROAD),TAS,2116.8,1759.6,-1.0,8,-42.58,147.78,77
23710,CLARENDON,SA,2112.4,2400.9,13.6,111,-35.11,138.62,267
94195,TUNNACK FIRE STATION,TAS,2111.2,1806.2,-1.0,12,-42.45,147.46,462
30083,TOOMBA STUD,QLD,2110.8,1927.6,74.5,48,-19.97,145.59,380
14949,DELAMERE WEAPONS RANGE,NT,2110.0,2576.4,-1.0,17,-15.74,131.92,221
33195,WILLIAMSON,QLD,2108.6,2610.2,-1.0,15,-22.47,150.18,28
82128,HURDLE CK AT BOBINAWARRAH,VIC,2106.4,2082.4,-1.0,11,-36.51,146.45,-999
23723,INMAN VALLEY,SA,2106.2,2247.1,25.0,77,-35.49,138.47,91
42025,HORSE CREEK AL,QLD,2106.2,1749.4,-1.0,13,-26.55,150.63,350
39175,LOVANDEE,QLD,2102.6,2828.8,-1.0,17,-24.42,151.21,144
23877,KERSBROOK,SA,2099.0,2175.8,-1.0,16,-34.79,138.87,350
39258,WALLA ALERT-B,QLD,2098.8,2744.5,3.2,63,-25.14,151.98,15
82143,SHEANS CREEK (HERONSLEA),VIC,2096.0,1767.6,-1.0,14,-36.79,145.66,220
9603,BUSSELTON AERO,WA,2095.0,1980.0,-1.0,13,-33.68,115.40,16
86035,ELTHAM,VIC,2088.1,2242.3,31.3,81,-37.70,145.16,44
51160,GILGANDRA (ROSEWOOD),NSW,2080.8,1419.7,-1.0,10,-31.70,148.63,288
41052,JINGI JINGI,QLD,2078.0,1919.1,71.3,88,-26.69,151.10,365
14821,ROSEWOOD,NT,2077.6,1916.0,67.7,100,-16.46,129.01,137
96081,POATINA,TAS,2077.6,2365.5,-1.0,11,-41.80,146.96,312
33267,MT DANGAR ALERT,QLD,2077.0,2310.5,-1.0,13,-20.22,148.12,46
33291,DALBEG ALERT,QLD,2073.0,2249.9,-1.0,16,-20.31,147.30,35
41405,FELTON,QLD,2072.2,1873.7,65.0,21,-27.80,151.74,428
1006,WYNDHAM AERO,WA,2071.8,2545.8,24.1,30,-15.51,128.15,4
9769,CULFORD,WA,2071.8,1971.7,71.9,33,-32.57,116.44,335
73151,TEMORA AIRPORT,NSW,2071.4,1480.2,-1.0,12,-34.43,147.51,281
33210,ST LAWRENCE,QLD,2069.0,2841.5,-1.0,16,-22.35,149.52,9
53002,BARADINE FORESTRY,NSW,2067.2,1876.0,74.2,63,-30.95,149.07,302
63229,COWRA (BILLIMARI (PINE VIEW)),NSW,2066.8,1971.5,-1.0,11,-33.68,148.61,298
41508,O\'CONNOR TM,QLD,2066.0,1589.9,-1.0,10,-27.73,150.65,300
26067,MOUNT SCHANK (JETHIA),SA,2064.6,2225.4,17.1,42,-37.96,140.77,21
9991,DONNYBROOK EAST,WA,2064.2,2080.7,-1.0,13,-33.57,115.84,120
91293,LOW HEAD,TAS,2063.6,2023.0,-1.0,19,-41.05,146.79,3
41493,THE DEEP CROSSING,QLD,2061.4,1869.1,68.4,20,-27.49,150.46,308
92154,LITTLE SWANPORT (LISDILLON FARM),TAS,2060.6,1689.8,-1.0,8,-42.29,148.00,20
9105,WANNEROO,WA,2060.0,2446.5,10.4,49,-31.73,115.79,30
23846,BELAIR,SA,2059.4,2051.8,-1.0,15,-35.00,138.66,480
42112,MILES CONSTANCE STREET,QLD,2057.8,1548.0,-1.0,13,-26.66,150.18,305
39341,BYRNESTOWN ALERT,QLD,2057.0,1906.8,-1.0,7,-25.52,151.76,120
52023,PILLIGA POST OFFICE,NSW,2056.5,1671.2,90.0,111,-30.35,148.88,162
14653,CONWAYS,NT,2055.6,2587.5,-1.0,11,-14.26,133.59,136
14828,SHOEING TOOL BORE,NT,2055.6,2173.3,-1.0,10,-16.39,131.56,179
23787,BALHANNAH (GUMBOOYA),SA,2053.2,2167.0,-1.0,17,-35.02,138.86,406
91121,WATERHOUSE(BAROOGA),TAS,2053.2,2002.2,69.2,40,-40.94,147.59,39
2043,MOUNT KRAUSS,WA,2051.6,1791.8,-1.0,9,-18.34,126.12,160
53018,CROPPA CREEK (KRUI PLAINS),NSW,2049.3,1755.5,78.4,103,-28.99,150.02,222
89074,DERRINALLUM (POST OFFICE),VIC,2047.0,1948.0,76.2,64,-37.95,143.22,177
26021,MOUNT GAMBIER AERO,SA,2044.6,2141.3,29.7,75,-37.75,140.77,63
41495,TERRAINE TM,QLD,2042.0,1850.1,-1.0,12,-28.48,151.28,318
91126,DEVONPORT AIRPORT,TAS,2039.2,2292.3,13.2,54,-41.17,146.43,8
73032,QUANDIALLA POST OFFICE,NSW,2039.0,1574.5,90.7,76,-34.01,147.79,250
14847,KIDMAN SPRINGS,NT,2038.3,2274.5,27.5,41,-16.12,130.96,100
22835,PARNDANA (TURKEY LANE),SA,2037.6,2154.8,25.0,41,-35.73,137.12,201
65013,EUGOWRA POST OFFICE,NSW,2036.2,1729.1,85.0,108,-33.43,148.37,270
9277,LAKE CHITTERING,WA,2034.8,1939.7,-1.0,6,-31.43,116.09,130
92020,LEWIS HILL (ST PAULS RIVER),TAS,2033.8,1878.4,73.3,76,-41.82,147.96,229
35093,MT MOFFATT NATIONAL PARK,QLD,2033.1,2113.4,33.3,28,-25.02,147.95,610
92079,TOOMS LAKE (TOOMS RIVER),TAS,2032.4,1787.9,87.1,32,-42.21,147.78,469
30137,HILLGROVE STATION,QLD,2027.9,1677.5,82.1,107,-19.63,145.79,300
14816,OLD DELAMERE,NT,2027.0,2070.9,51.9,28,-15.74,131.53,102
54038,NARRABRI AIRPORT AWS,NSW,2021.4,1699.7,-1.0,19,-30.32,149.83,229
82021,INDIGO,VIC,2016.7,1847.0,77.4,94,-36.10,146.60,200
9992,CAPEL NORTH,WA,2011.8,2040.0,-1.0,17,-33.54,115.55,20
14864,MOOLOOLOO,NT,2011.1,2319.5,-1.0,17,-16.33,131.51,120
3093,FITZROY CROSSING AERO,WA,2010.0,2044.1,47.4,20,-18.18,125.56,115
42100,SOUTHWOOD,QLD,2008.9,1751.0,-1.0,8,-27.76,150.07,240
89018,LISMORE (POST OFFICE),VIC,2005.9,1895.2,69.7,90,-37.95,143.34,178
30072,LOW HOLM STATION,QLD,2005.4,1956.0,64.0,101,-20.10,144.99,701
41469,MACALISTER,QLD,2004.0,1914.6,61.7,48,-27.03,151.09,337
71000,ADAMINABY ALPINE TOURIST PARK,NSW,1999.8,2046.3,45.5,100,-36.00,148.77,1015
99005,FLINDERS ISLAND AIRPORT,TAS,1999.0,2252.0,12.9,63,-40.09,148.00,9
91237,LAUNCESTON (TI TREE BEND),TAS,1997.0,2023.8,53.3,31,-41.42,147.12,5
9815,THE DUKE,WA,1996.6,1874.9,85.2,28,-33.88,122.57,61
2064,ARGYLE AERODROME,WA,1996.4,2293.3,32.0,26,-16.64,128.45,164
33266,MOSS VALE ALERT,QLD,1996.0,2201.2,-1.0,14,-20.24,148.03,138
41519,BOOBA SANDS TM,QLD,1996.0,1465.2,-1.0,8,-28.58,150.85,-999
9515,BUSSELTON SHIRE,WA,1992.7,2480.7,4.8,104,-33.66,115.35,4
94172,TEA TREE (THE POINT),TAS,1991.2,1654.0,100.0,34,-42.65,147.36,345
82029,MILAWA BROWN BROS,VIC,1990.8,1988.2,56.4,102,-36.46,146.43,158
9877,LUDLOW,WA,1990.2,2000.6,-1.0,18,-33.60,115.50,15
9243,WOODRIDGE ESTATE,WA,1987.9,1874.1,-1.0,9,-31.34,115.57,30
40500,EMBREYS BRIDGE,QLD,1985.1,2086.7,-1.0,17,-26.64,151.94,357
14621,NUTWOOD DOWNS,NT,1983.8,2181.3,32.3,66,-15.81,134.15,183
9275,MUCHEA,WA,1983.4,1995.6,-1.0,4,-31.59,115.97,60
23920,WOODSIDE (WICKS ESTATE),SA,1982.6,2046.2,-1.0,7,-34.96,138.87,348
74127,WAGGA WAGGA (GURWOOD STREET),NSW,1981.4,1592.8,-1.0,8,-35.11,147.36,180
41509,TRAIGHLI,QLD,1980.0,1850.7,72.0,26,-27.67,150.35,297
94258,CLAREMONT (GILLIES ROAD),TAS,1980.0,1808.9,-1.0,5,-42.77,147.23,95
91326,DEDDINGTON (NILE RIVER),TAS,1975.0,2039.7,-1.0,4,-41.60,147.41,240
24583,WOODSIDE (INVERBRACKIE),SA,1974.6,2052.9,-1.0,8,-34.95,138.93,447
39193,MT LAWLESS TM,QLD,1973.3,1720.9,-1.0,5,-25.55,151.66,104
23878,MOUNT CRAWFORD AWS,SA,1973.0,2002.4,45.5,23,-34.73,138.93,525
90147,COLAC (SHIRE OFFICE),VIC,1973.0,2218.8,13.9,87,-38.34,143.58,134
86338,MELBOURNE (OLYMPIC PARK),VIC,1972.4,1644.5,-1.0,4,-37.83,144.98,8
55312,MANILLA (MUSEUM),NSW,1970.6,1970.6,-1.0,1,-30.75,150.72,358
53044,WEE WAA (GEORGE ST),NSW,1970.4,1742.2,76.7,104,-30.23,149.45,190
39043,GLENLANDS,QLD,1968.6,2410.9,15.6,65,-23.53,150.51,42
41457,COOLMUNDA DAM,QLD,1968.6,1813.4,71.8,40,-28.42,151.21,321
73150,STOCKINBINGAL (SUNNYDALE),NSW,1968.4,1635.1,-1.0,6,-34.53,147.84,340
88126,GOULBURN RIVER @ SEYMOUR,VIC,1967.8,1604.2,-1.0,7,-37.02,145.11,140
26098,NANGWARRY FORESTRY SA DEPOT,SA,1966.6,2058.0,-1.0,16,-37.54,140.81,70
10310,WERRIBEE,WA,1965.8,1838.6,-1.0,11,-31.77,116.33,295
9976,PINJARRA SOUTH,WA,1965.4,2052.5,-1.0,16,-32.65,115.86,13
23892,MONTACUTE,SA,1959.8,1976.8,-1.0,12,-34.89,138.76,312
89103,DERRINALLUM (CRAIGMORE),VIC,1959.6,1705.8,96.5,114,-37.97,143.22,173
39104,MONTO TOWNSHIP,QLD,1959.0,2213.1,24.0,76,-24.86,151.12,239
41506,BENGALLA TM,QLD,1958.2,1832.1,-1.0,10,-28.66,150.67,228
87043,MEREDITH (DARRA),VIC,1956.0,1970.7,47.9,120,-37.82,144.15,362
50052,CONDOBOLIN AG RESEARCH STN,NSW,1954.6,1365.6,100.0,65,-33.07,147.23,195
41522,DALBY AIRPORT,QLD,1954.4,1791.0,66.7,28,-27.16,151.26,344
91072,LAUNCESTON (KINGS MEADOWS),TAS,1951.7,2074.8,30.6,63,-41.47,147.16,67
34084,CHARTERS TOWERS AIRPORT,QLD,1950.7,2057.1,56.5,24,-20.05,146.27,290
9021,PERTH AIRPORT,WA,1949.4,2270.7,5.3,76,-31.93,115.98,15
30082,GREGORY SPRINGS STATION,QLD,1948.9,2142.2,36.3,81,-19.70,144.38,760
39036,EIDSVOLD POST OFFICE,QLD,1947.8,2124.9,30.8,108,-25.37,151.12,197
85160,DARRIMAN (TARRALANGI),VIC,1946.9,1993.6,34.8,47,-38.42,146.97,45
90176,MORTLAKE RACECOURSE,VIC,1946.2,1745.4,88.0,26,-38.07,142.77,130
85314,EAST SALE AIRPORT,VIC,1945.2,1769.1,-1.0,2,-38.10,147.14,5
53115,MOREE AERO,NSW,1944.4,1703.7,82.6,24,-29.49,149.85,213
35090,REWAN STATION,QLD,1943.2,2364.8,21.3,48,-24.96,148.37,306
88064,MOLLISONS CK AT PYALONG,VIC,1942.6,1718.0,-1.0,13,-37.12,144.86,247
70008,TOMBONG (SNOWY RIVER @ BURNT HUT CROSSIN,NSW,1940.7,1735.6,-1.0,2,-36.84,148.93,-999
26101,FURNER (WOOMERA HOMESTEAD),SA,1938.6,2122.6,-1.0,10,-37.40,140.34,30
39345,BARWOOD,QLD,1938.6,2025.1,-1.0,11,-25.33,150.51,409
94254,DUNALLEY (STROUD POINT),TAS,1938.2,1719.4,-1.0,3,-42.90,147.79,12
44223,DERBYSHIRE DOWNS,QLD,1936.6,1870.9,-1.0,8,-25.45,147.30,507
43095,NAMARAH,QLD,1934.4,1691.5,72.5,52,-27.39,149.39,332
90182,CASTERTON,VIC,1933.0,1928.3,-1.0,15,-37.58,141.33,131
34094,TAEMAS,QLD,1932.5,1752.6,-1.0,9,-21.00,146.43,187
33289,STRATHBOGIE ALERT,QLD,1932.0,2164.9,-1.0,16,-20.14,147.56,176
41490,BRIGALOW BRIDGE TM,QLD,1932.0,1782.4,-1.0,8,-26.90,150.78,297
2073,MARGARET RIVER AIRSTRIP,WA,1931.8,1750.0,-1.0,10,-18.62,126.88,270
14626,DALY WATERS AIRSTRIP,NT,1927.8,2013.2,43.5,47,-16.26,133.38,210
94111,TAROONA (TAROONA CRESCENT),TAS,1927.8,1880.5,61.2,50,-42.95,147.35,20
89019,MIRRANATWA (BOWACKA),VIC,1922.8,2010.5,34.9,110,-37.40,142.38,248
40708,MONOGORILBY - HOME,QLD,1922.0,2115.9,27.3,23,-26.03,151.06,385
65084,TOOGONG (GLENAYR),NSW,1915.0,1639.5,-1.0,7,-33.37,148.59,320
90022,COLAC AIRPORT,VIC,1913.0,1810.0,-1.0,14,-38.28,143.66,122
2079,HALLS CREEK AIRPORT,WA,1909.2,1683.8,-1.0,3,-18.23,127.67,409
90180,AIREYS INLET,VIC,1907.2,1879.6,54.5,23,-38.46,144.09,105
200838,HOGAN ISLAND,TAS,1906.4,1987.0,-1.0,7,-39.22,146.98,116
55244,WILLOW TREE (COOINDA),NSW,1906.2,1843.9,54.2,49,-31.64,150.57,402
39349,WESTWOOD TM,QLD,1904.6,1859.7,-1.0,8,-23.63,150.15,160
90010,BRANXHOLME (BASSETT),VIC,1899.0,1916.4,49.0,97,-37.86,141.77,112
14867,UPPER WICKHAM RIVER,NT,1898.4,1956.8,-1.0,9,-16.96,130.57,242
33013,COLLINSVILLE POST OFFICE,QLD,1895.0,2081.1,35.6,74,-20.55,147.85,196
43099,SPRINGFIELD,QLD,1894.7,1583.1,-1.0,18,-26.82,148.02,316
9281,MILLENDON (SWAN VALLEY),WA,1891.2,1883.5,-1.0,3,-31.81,116.02,16
2032,WARMUN,WA,1885.7,2160.8,33.7,96,-17.02,128.22,203
41025,DUNMORE STATE FOREST,QLD,1883.7,2125.6,24.5,54,-27.58,151.08,411
91236,WESTBURY (BIRRALEE ROAD),TAS,1880.1,2264.1,12.0,26,-41.51,146.83,186
9264,TAMALA PARK (MINDARIE),WA,1879.6,1882.0,-1.0,2,-31.71,115.72,20
23820,WILLIAMSTOWN (SOUTH PARA RESERVOIR),SA,1879.2,2022.1,29.2,49,-34.68,138.86,280
35117,LA PALMA,QLD,1879.0,1826.3,55.8,78,-25.39,149.78,240
26109,LAKE GEORGE (MAHARISHI VEDIC COLLEGE),SA,1878.9,2060.8,-1.0,7,-37.38,139.95,5
85072,EAST SALE,VIC,1877.6,1776.9,64.5,77,-38.12,147.13,5
89003,BALMORAL (POST OFFICE),VIC,1874.5,1857.7,56.7,98,-37.25,141.84,180
89068,ROKEWOOD,VIC,1872.6,1679.7,88.6,45,-37.90,143.72,177
26026,ROBE,SA,1869.4,1914.0,38.8,117,-37.16,139.76,3
96083,THE DEN,TAS,1868.6,1934.5,-1.0,6,-41.98,147.05,526
82170,BENALLA AIRPORT,VIC,1867.2,1752.5,-1.0,10,-36.55,146.00,171
41145,MARNHULL,QLD,1862.7,1887.1,46.0,64,-26.84,151.17,348
9556,ALDERVALE,WA,1860.4,1948.8,40.5,85,-33.98,116.33,200
33312,HEDLOW AIRFIELD TM,QLD,1857.4,1800.8,-1.0,6,-23.22,150.61,30
29077,BURKETOWN AIRPORT,QLD,1857.0,2506.5,-1.0,13,-17.75,139.54,6
23705,BIRDWOOD,SA,1856.7,2144.3,12.8,110,-34.80,138.95,389
41532,CONNOLLY DAM ALERT,QLD,1855.0,1550.4,-1.0,18,-28.36,152.00,540
71022,BERRIDALE (BOLTON STREET),NSW,1853.5,1700.2,68.6,52,-36.37,148.83,895
43020,MITCHELL POST OFFICE,QLD,1852.5,1695.6,74.0,120,-26.49,147.98,337
92124,MARIA ISLAND (POINT LESUEUR),TAS,1852.2,1610.2,-1.0,7,-42.66,148.02,28
2021,MOUNT AMHURST,WA,1852.0,1482.9,79.6,50,-18.39,126.99,300
33175,ETON VALE,QLD,1840.8,2090.6,41.4,30,-20.21,147.78,144
23896,ATHELSTONE (BLACK HILL ALERT),SA,1840.0,1898.5,-1.0,17,-34.88,138.71,238
39320,JONES WEIR TW TM,QLD,1838.0,1570.0,-1.0,2,-25.59,151.30,104
86282,MELBOURNE AIRPORT,VIC,1837.6,1607.0,85.7,50,-37.67,144.83,113
35194,WYSEBY,QLD,1833.8,2112.1,22.0,51,-24.96,148.53,261
39158,THEODORE,QLD,1831.7,2009.0,28.1,33,-24.95,150.08,144
91311,LAUNCESTON AIRPORT,TAS,1824.8,1871.9,-1.0,16,-41.55,147.22,167
9587,NEWBICUP,WA,1821.9,1818.9,53.9,79,-34.00,116.43,240
51042,QUAMBONE STATION,NSW,1818.6,1346.0,92.8,112,-30.93,147.87,152
50141,OOTHA (MAYFIELD),NSW,1818.1,1531.1,-1.0,8,-33.06,147.44,222
23753,WILLUNGA,SA,1817.5,1937.1,28.4,103,-35.27,138.56,104
91260,STRATHBRIDGE (MEANDER RIVER),TAS,1816.4,1759.4,-1.0,4,-41.49,146.90,160
39035,MELROSE,QLD,1815.9,1830.9,-1.0,10,-23.14,149.97,60
70348,BUMBALONG (UPSTREAM RD),NSW,1813.6,1637.6,-1.0,8,-35.86,149.13,684
35070,TAROOM POST OFFICE,QLD,1812.5,1980.7,37.5,97,-25.64,149.80,199
86038,ESSENDON AIRPORT,VIC,1811.2,1750.3,59.7,68,-37.73,144.91,78
39332,LLOYONA,QLD,1807.0,1979.1,-1.0,10,-24.41,149.84,108
51049,TRANGIE RESEARCH STATION AWS,NSW,1805.6,1487.7,85.7,85,-31.99,147.95,215
23752,WILLIAMSTOWN,SA,1803.7,2022.5,18.4,104,-34.65,138.88,260
51038,NEVERTIRE (CLYDE ST),NSW,1796.9,1377.7,90.4,105,-31.84,147.72,197
42022,MEANDARRA POST OFFICE,QLD,1795.7,1703.9,68.8,62,-27.32,149.88,289
23922,FORRESTON ALERT,SA,1792.8,1781.6,-1.0,2,-34.79,138.90,392
9754,METTLER,WA,1792.4,1806.5,51.4,38,-34.60,118.55,120
36160,FRANKFIELD STATION,QLD,1789.0,1363.2,-1.0,14,-22.27,147.09,240
93040,ROTHERWOOD,TAS,1786.9,1750.0,65.8,42,-42.31,147.17,480
74148,NARRANDERA AIRPORT AWS,NSW,1786.0,1351.7,97.6,43,-34.71,146.51,145
94182,BELOW CRAIGBOURNE DAM (COAL RIVER),TAS,1785.6,1522.7,-1.0,6,-42.56,147.40,150
52020,MUNGINDI POST OFFICE,NSW,1782.6,1499.9,86.5,120,-28.98,148.99,160
41091,LAURIEDALE,QLD,1781.7,1702.4,62.5,21,-26.81,151.08,348
70309,DELEGATE RIVER AT QUIDONG,NSW,1779.8,1230.4,-1.0,9,-36.91,149.04,650
74104,THE ROCK POST OFFICE,NSW,1779.2,1718.4,63.2,88,-35.27,147.11,228
23860,LONG RIDGE (GREENHILL),SA,1778.0,1759.4,-1.0,15,-34.95,138.68,375
23721,HAPPY VALLEY RESERVOIR,SA,1777.8,1919.4,25.0,109,-35.06,138.57,174
91303,WESTWOOD BRIDGE (MEANDER RIVER),TAS,1777.0,1695.0,-1.0,4,-41.52,147.03,137
51161,COONAMBLE AIRPORT AWS,NSW,1775.2,1469.3,-1.0,16,-30.98,148.38,181
9268,JULIMAR FOREST,WA,1774.8,1600.0,-1.0,12,-31.46,116.37,342
35109,BOOROONDARRA,QLD,1773.5,1898.9,36.4,78,-22.82,148.49,200
89025,SKIPTON (GOLF COURSE),VIC,1770.8,1860.5,30.0,101,-37.69,143.37,299
44211,CHESTERTON TM,QLD,1770.2,1616.3,-1.0,16,-25.34,147.30,520
23085,ROSSLYN PARK (SEAVIEW),SA,1760.2,1801.2,-1.0,14,-34.92,138.68,179
33292,MYUNA ALERT,QLD,1758.0,2044.9,-1.0,12,-20.58,147.60,97
9654,BREMER BAY,WA,1757.3,1911.9,24.2,67,-34.40,119.38,20
14825,VICTORIA RIVER DOWNS,NT,1751.3,1974.9,32.3,97,-16.40,131.01,89
2074,MOOLA BULLA AIRSTRIP,WA,1751.2,1836.6,-1.0,8,-18.20,127.49,440
24579,MT TORRENS,SA,1751.2,1942.1,-1.0,19,-34.88,138.97,520
43112,DALMALLY,QLD,1750.6,1709.6,-1.0,7,-26.80,148.60,358
35293,HEATHWOOD AL,QLD,1749.0,1756.0,-1.0,10,-24.34,148.06,312
90173,HAMILTON AIRPORT,VIC,1748.0,1843.0,39.4,34,-37.65,142.06,241
92148,SWANSEA (FRANCIS STREET),TAS,1746.8,1583.1,-1.0,8,-42.14,148.07,19
39350,CURRAJONG,QLD,1745.6,1910.5,-1.0,6,-25.00,151.23,265
44056,MUNGALLALA,QLD,1745.5,1572.1,76.8,83,-26.45,147.55,426
9822,DALYUP PARK,WA,1745.2,1757.1,49.2,62,-33.78,121.56,30
41053,JONDARYAN POST OFFICE,QLD,1743.4,1879.3,35.2,109,-27.37,151.59,382
52088,WALGETT AIRPORT AWS,NSW,1743.4,1281.9,88.5,27,-30.04,148.12,133
43075,MUNNAWEENA,QLD,1737.8,1511.5,-1.0,3,-25.80,147.95,424
43037,FINSBURY PARK,QLD,1737.6,1824.1,-1.0,19,-26.21,149.09,333
35064,SPRING CREEK STATION,QLD,1733.2,1976.7,32.1,57,-24.45,147.90,400
88109,MANGALORE AIRPORT,VIC,1732.4,1726.0,51.2,44,-36.89,145.19,141
87121,ROCKBANK (MELTON),VIC,1730.6,1569.1,63.3,31,-37.68,144.67,125
14866,UPPER VICTORIA RIVER,NT,1730.0,1878.9,-1.0,8,-17.61,130.07,406
39066,GAYNDAH AIRPORT,QLD,1729.4,1724.4,-1.0,14,-25.62,151.62,111
82039,RUTHERGLEN RESEARCH,VIC,1729.0,1765.4,44.2,96,-36.10,146.51,175
9520,CAPE RICHE,WA,1728.0,1689.4,56.9,103,-34.61,118.75,40
35292,DUCABROOK AL,QLD,1724.6,1683.5,-1.0,10,-23.85,147.40,334
10917,WANDERING,WA,1722.2,1564.8,-1.0,16,-32.67,116.67,275
9274,MINSTON PARK,WA,1720.0,1619.6,-1.0,9,-31.26,116.13,298
41112,GIDDI GIDDI SOUTH TM,QLD,1719.0,1382.6,-1.0,7,-28.40,150.05,196
9579,OAKE MARSH FARM,WA,1718.2,1731.0,40.0,41,-33.76,122.07,60
23005,ADELAIDE (GLEN OSMOND),SA,1718.1,1865.9,24.5,99,-34.95,138.65,128
9772,ERINAIR,WA,1717.2,1631.3,68.9,46,-33.76,121.22,60
73149,WYALONG (MARSDEN (MINORU)),NSW,1712.5,1293.3,-1.0,4,-33.74,147.52,207
87184,BREAKWATER (GEELONG RACECOURSE),VIC,1711.0,1567.2,-1.0,6,-38.17,144.38,13
88029,HEATHCOTE,VIC,1710.4,1715.8,58.3,116,-36.96,144.70,311
44154,WHYENBAH,QLD,1709.8,1319.3,86.8,39,-28.39,148.31,175
9248,MOONDAH BROOK,WA,1709.2,1699.9,-1.0,19,-31.33,115.95,113
85033,GIFFARD,VIC,1708.9,1689.0,46.7,91,-38.42,147.09,15
9635,FRANKLAND,WA,1708.5,1785.2,32.4,35,-34.36,117.08,230
74267,TALLIMBA (AVONLEA),NSW,1707.3,1289.4,-1.0,11,-34.00,146.77,235
51162,WALGETT (BREWON AWS),NSW,1706.8,1223.5,-1.0,3,-30.24,147.53,130
35282,TAROOM TM,QLD,1705.0,1476.2,-1.0,13,-25.64,149.79,181
88167,PUCKAPUNYAL LYON HILL (DEFENCE),VIC,1704.2,1704.2,-1.0,1,-36.94,145.05,193
88166,PUCKAPUNYAL WEST (DEFENCE),VIC,1703.6,1703.6,-1.0,1,-37.02,144.85,293
10530,CHAMINGUP,WA,1701.7,1629.8,66.7,100,-33.91,117.10,320
35294,KULUMUR RANGE ALERT,QLD,1700.0,1625.1,-1.0,9,-23.80,147.77,362
9210,LAKE NAMMEN,WA,1696.6,1714.8,34.3,36,-30.89,115.58,70
94055,RICHMOND (BROOKBANK),TAS,1695.9,1584.8,69.3,89,-42.76,147.40,40
43060,HAVELOCK,QLD,1695.8,1630.3,60.3,64,-26.08,147.90,434
75039,LAKE CARGELLIGO AIRPORT,NSW,1695.7,1269.4,96.3,108,-33.28,146.37,169
9977,MANDURAH,WA,1695.6,1915.2,-1.0,12,-32.52,115.71,3
39073,MUNDUBBERA,QLD,1695.3,2102.8,7.1,100,-25.59,151.30,143
43051,PINE HILLS TM,QLD,1695.0,1347.0,-1.0,12,-26.26,149.24,350
39290,BILOELA - VALBONA,QLD,1694.9,1824.6,-1.0,13,-24.41,150.52,177
74202,GANMAIN (ROSEDALE),NSW,1691.8,1503.7,75.0,49,-34.85,146.98,175
35129,ROLLESTON AIRPORT,QLD,1691.4,1645.7,-1.0,7,-24.46,148.63,220
41124,KILBRONAE TM,QLD,1690.0,1522.7,-1.0,3,-28.28,150.37,225
34007,MOUNT MCCONNELL,QLD,1689.7,1888.7,30.8,92,-20.70,147.02,150
88015,CLUNES,VIC,1689.7,1766.3,39.7,117,-37.30,143.78,332
33290,MT PLEASANT ALERT,QLD,1688.0,2148.5,-1.0,16,-20.29,147.90,191
36046,TIREE,QLD,1683.6,1419.5,79.0,77,-21.63,145.12,282
44111,WANSEY DOWNS,QLD,1682.5,1458.9,81.6,50,-25.85,146.19,337
9280,LANCELIN (DEFENCE),WA,1682.4,1639.4,-1.0,2,-30.84,115.23,3
35049,GILLESPIE,QLD,1682.4,1531.3,65.7,103,-24.56,145.79,317
43102,MITCHELL TM,QLD,1681.0,1520.8,-1.0,12,-26.49,147.98,326
9739,TELINA DOWNS,WA,1679.7,1632.1,58.1,32,-33.68,122.33,170
39089,THANGOOL AIRPORT,QLD,1676.0,2014.2,11.4,80,-24.49,150.57,193
94048,OPOSSUM BAY,TAS,1675.1,1647.0,53.9,66,-43.00,147.41,35
93052,MOUNT MORRISTON (MACQUARIE RIVER),TAS,1673.4,1527.9,-1.0,5,-42.16,147.58,218
35053,PEAKVALE STATION,QLD,1670.2,1694.8,56.3,65,-23.19,147.35,-999
94008,HOBART AIRPORT,TAS,1670.0,1473.6,82.0,62,-42.83,147.50,4
74050,GRONG GRONG (JUNEE ST),NSW,1669.2,1377.9,91.3,93,-34.74,146.78,165
88124,TABILK (TAHBILK WINERY),VIC,1668.2,1808.8,32.3,32,-36.83,145.09,131
74000,ARDLETHAN POST OFFICE,NSW,1667.7,1472.2,83.5,80,-34.36,146.90,204
81123,BENDIGO AIRPORT,VIC,1667.4,1503.0,85.2,28,-36.74,144.33,209
26105,ROBE AIRFIELD,SA,1666.2,1800.2,-1.0,17,-37.18,139.81,3
35295,BINGEGANG WEIR HW ALERT,QLD,1665.0,1614.6,-1.0,9,-23.07,149.04,107
43052,WARKON,QLD,1662.7,1598.1,63.8,95,-27.00,149.50,250
36050,ULCANBAH,QLD,1661.7,1647.6,60.3,59,-22.02,145.98,270
33062,RAVENSWOOD POST OFFICE,QLD,1661.3,1965.2,26.7,106,-20.10,146.89,247
9193,ROTTNEST ISLAND,WA,1661.2,1704.4,-1.0,18,-32.01,115.50,43
85297,MAFFRA,VIC,1658.2,1509.7,-1.0,10,-37.97,146.99,40
23042,BURNSIDE,SA,1655.6,1825.0,16.7,31,-34.94,138.66,-999
35274,JUANITA,QLD,1651.4,1650.2,61.9,43,-23.85,148.11,245
43101,WERIBONE TM,QLD,1650.0,1308.8,-1.0,13,-27.31,148.83,215
82138,WANGARATTA AERO,VIC,1649.4,1799.3,39.1,24,-36.42,146.31,153
89085,ARARAT PRISON,VIC,1649.4,1743.5,40.0,51,-37.28,142.98,295
22843,PARNDANA CFS AWS,SA,1648.2,1702.3,-1.0,8,-35.79,137.25,165
43091,ROMA AIRPORT,QLD,1647.8,1708.1,53.3,31,-26.55,148.77,307
71019,SNOWY RIVER @ DALGETY WEIR,NSW,1647.4,1360.6,-1.0,10,-36.51,148.83,-999
2078,LARRAWA AIRFIELD,WA,1647.0,1595.6,-1.0,9,-18.83,126.53,270
35079,WHARTON CREEK STATION,QLD,1646.6,1862.9,32.1,54,-24.62,147.41,370
93058,YORK PLAINS (INVERELL),TAS,1645.6,1507.5,-1.0,4,-42.26,147.43,375
10582,KOJONUP,WA,1643.6,1615.6,63.8,106,-33.83,117.16,305
35242,BUNGABAN TM,QLD,1642.8,1945.6,25.0,21,-25.90,150.13,260
87031,LAVERTON RAAF,VIC,1642.8,1602.6,53.3,76,-37.86,144.76,20
41391,WOODSPRING,QLD,1639.1,1900.7,22.0,51,-28.36,151.15,300
44194,NINDIGULLY,QLD,1638.9,1573.3,55.6,46,-28.35,148.82,189
23105,BROWNHILL CREEK (SCOTCH COLLEGE),SA,1637.8,1621.6,-1.0,16,-34.98,138.62,116
35139,LOCHINGTON,QLD,1637.8,1624.6,-1.0,9,-23.94,147.53,267
94177,RICHMOND (STRATHAYR),TAS,1636.5,1495.7,-1.0,18,-42.76,147.38,85
95081,NEW NORFOLK (WEST),TAS,1635.1,1582.5,-1.0,12,-42.78,147.03,10
44117,DIRRANBANDI,QLD,1632.5,1067.5,-1.0,4,-28.59,148.23,175
23732,ADELAIDE (MORPHETT VALE),SA,1632.4,1698.0,39.2,80,-35.14,138.53,92
109516,BODDINGTON NORTH,WA,1632.2,1626.7,-1.0,5,-32.78,116.48,216
9542,ESPERANCE AERO,WA,1628.6,1691.9,28.2,40,-33.68,121.83,142
43080,KAROOLA PARK,QLD,1625.7,1630.8,44.0,51,-27.23,148.74,249
35251,CRAIGMORE AL,QLD,1622.0,1805.8,-1.0,5,-23.88,147.76,231
35182,KINNOUL,QLD,1620.8,1887.0,21.5,94,-25.68,149.63,200
74162,MORUNDAH HOTEL,NSW,1617.3,1299.2,95.0,21,-34.93,146.30,128
44038,GLENORIE,QLD,1613.2,1406.1,74.7,76,-27.02,147.15,311
74110,URANA POST OFFICE,NSW,1612.1,1332.7,90.7,108,-35.33,146.27,125
9276,NAMBUNG STATION,WA,1612.0,1546.8,-1.0,7,-30.57,115.22,42
21127,SEVENHILL,SA,1611.8,1767.4,-1.0,12,-33.88,138.64,480
43015,INJUNE POST OFFICE,QLD,1611.0,1895.0,16.0,95,-25.84,148.57,390
36034,BLACKALL AIRPORT,QLD,1609.8,1330.7,-1.0,13,-24.43,145.43,281
34035,MORANBAH AIRPORT,QLD,1608.4,1559.7,-1.0,8,-22.06,148.08,232
81087,BUNGEET (HIGHLANDS),VIC,1605.0,1568.2,-1.0,12,-36.26,146.04,274
35065,SPRINGSURE COMET ST,QLD,1603.8,2028.2,13.1,85,-24.12,148.09,345
80109,COBRAM (GOULBURN MURRAY),VIC,1603.0,1366.7,88.4,44,-35.91,145.64,113
43054,INJUNE TM,QLD,1598.4,1709.7,-1.0,7,-25.84,148.57,390
94264,HOBART AIRPORT (OFFICE),TAS,1598.2,1315.3,-1.0,7,-42.84,147.50,24
41090,DARR CREEK AL,QLD,1598.0,1498.7,-1.0,10,-26.54,151.13,393
42106,FENTON TM,QLD,1598.0,1358.0,-1.0,2,-28.94,148.74,30
48031,COLLARENEBRI (ALBERT ST),NSW,1596.8,1502.0,66.3,93,-29.54,148.58,145
89033,WICKLIFFE,VIC,1589.3,1681.4,26.9,105,-37.69,142.73,222
23916,BELLEVUE HEIGHTS,SA,1589.2,1640.5,-1.0,13,-35.03,138.59,210
74261,BECKOM (WALLEROOBIE (GOLDEN VALLEY)),NSW,1583.1,1359.3,-1.0,7,-34.53,146.98,249
35068,WADDY BRAE TM,QLD,1580.4,1495.3,-1.0,19,-25.61,148.94,470
86020,CHELTENHAM KINGSTON CENTRE,VIC,1576.3,2274.8,1.2,83,-37.96,145.08,39
94250,HOBART AIRPORT EAST,TAS,1574.4,1346.1,-1.0,3,-42.83,147.51,2
44045,KENILWORTH,QLD,1567.4,1373.8,74.0,74,-27.41,147.43,240
95003,BUSHY PARK (BUSHY PARK ESTATES),TAS,1564.2,1717.6,21.8,111,-42.71,146.90,27
94212,CAMPANIA (KINCORA),TAS,1564.0,1447.1,-1.0,11,-42.69,147.43,45
10897,NALYERLUP,WA,1558.8,1342.4,96.5,30,-34.22,118.50,240
23876,MCLAREN VALE (PIRRAMIMMA WINERY),SA,1555.6,1498.5,-1.0,10,-35.23,138.54,55
81085,DUNOLLY,VIC,1554.3,1465.8,69.0,114,-36.86,143.73,210
91306,CRESSY RESEARCH STATION,TAS,1552.8,1693.3,-1.0,8,-41.73,147.08,148
23101,FELIXSTOW (PAYNEHAM),SA,1552.0,1448.6,-1.0,9,-34.89,138.64,45
9813,MOUNT HOWICK,WA,1550.5,1581.1,52.8,37,-33.73,122.76,110
24590,MOUNT PLEASANT WTP,SA,1545.0,1589.7,-1.0,6,-34.80,139.05,475
18019,COULTA,SA,1541.7,1566.4,39.2,103,-34.39,135.47,75
9868,MUNGLINUP,WA,1538.6,1564.8,39.1,24,-33.71,120.87,80
35164,MONKLANDS,QLD,1538.5,1491.2,57.1,22,-23.41,146.46,396
2051,BILLILUNA,WA,1538.2,1727.3,-1.0,11,-19.56,127.67,305
35276,SPRINGSURE CREEK JUNCTION AL,QLD,1537.8,1557.8,-1.0,9,-23.86,148.50,167
21033,MINTARO,SA,1536.7,1801.9,11.0,92,-33.91,138.72,418
96070,HERMITAGE (SHANNON RIVER),TAS,1535.2,1608.1,-1.0,6,-42.26,146.88,500
90005,BEEAC (POST OFFICE),VIC,1534.8,1839.3,3.2,95,-38.20,143.64,120
26103,BOOL LAGOON (LOCKSLEY FARM),SA,1534.2,1675.8,-1.0,9,-37.13,140.73,52
81120,RUSHWORTH (RAGLUS),VIC,1534.2,1675.1,40.0,21,-36.58,145.01,160
95048,OUSE FIRE STATION,TAS,1531.0,1579.8,-1.0,9,-42.48,146.71,90
35094,WINVIC,QLD,1530.4,1693.8,38.6,45,-22.48,147.52,318
48243,LIGHTNING RIDGE VISITOR INFORMATION CENT,NSW,1527.2,1352.8,68.2,23,-29.43,147.97,154
81115,WANALTA DAEN STATION,VIC,1525.4,1505.5,57.9,39,-36.63,144.87,115
94143,MAURICETON (JORDAN RIVER),TAS,1519.2,1537.0,45.6,47,-42.53,147.12,149
35205,WOORARRA,QLD,1518.0,1768.4,31.3,81,-24.02,147.92,288
79107,PATYAH (BOOROOPKI),VIC,1513.6,1498.6,57.1,22,-36.81,141.26,140
43108,BENDOBA TM,QLD,1513.0,1616.1,-1.0,12,-25.96,148.39,470
35146,EMERALD RADAR AL,QLD,1511.8,1430.9,-1.0,7,-23.55,148.24,188
30127,WOODBINE STATION,QLD,1511.7,1445.9,61.0,96,-20.99,144.64,420
88043,MARYBOROUGH,VIC,1511.6,1592.5,37.1,117,-37.06,143.73,249
34027,ESSEX,QLD,1509.0,1737.8,30.4,24,-22.77,148.81,175
94248,SORELL (ABBATOIRS),TAS,1508.5,1289.7,-1.0,6,-42.80,147.56,10
10866,CRANHAM,WA,1506.4,1472.0,67.7,66,-33.93,117.33,340
10905,JACUP,WA,1506.0,1354.2,-1.0,19,-33.89,119.11,305
75163,HILLSTON ( ALDINGA),NSW,1502.0,1230.7,89.7,30,-33.35,145.87,135
14854,SUNSHINE BORE,NT,1501.0,1686.3,-1.0,13,-17.86,130.88,250
51164,GIRILAMBONE (OKEH) AWS,NSW,1500.4,1500.4,-1.0,1,-31.08,146.93,178
74081,MULWALA POST OFFICE,NSW,1498.6,1461.8,68.4,77,-35.99,146.01,127
35131,TALAGAI,QLD,1494.8,1792.2,20.7,30,-23.13,148.53,305
81124,YARRAWONGA,VIC,1486.8,1415.5,60.9,24,-36.03,146.03,129
14829,LAJAMANU AIRPORT,NT,1486.6,1467.9,52.8,37,-18.33,130.64,316
35124,CLERMONT AIRPORT,QLD,1486.4,1539.6,-1.0,10,-22.78,147.62,270
44232,THE 27 MILE GARDEN AL,QLD,1486.0,589.0,-1.0,4,-26.08,146.42,324
43035,SURAT,QLD,1484.1,1694.7,26.1,120,-27.16,149.07,246
21010,BRINKWORTH (BUNGAREE),SA,1484.0,1735.3,13.8,117,-33.75,138.56,368
93044,LLEWELLYN (SOUTH ESK RIVER),TAS,1484.0,1503.6,-1.0,10,-41.82,147.57,180
35264,EMERALD AIRPORT,QLD,1483.6,1652.7,42.1,20,-23.57,148.18,189
9865,WARRA JARRA,WA,1483.5,1529.8,40.0,26,-34.40,118.89,90
81020,INGLEWOOD (POST OFFICE),VIC,1482.8,1393.1,70.0,101,-36.58,143.87,150
23754,YANKALILLA,SA,1480.8,1735.5,5.5,111,-35.46,138.35,45
43105,TABERS TM,QLD,1479.0,1458.6,-1.0,14,-26.41,148.78,315
21020,GEORGETOWN,SA,1478.4,1437.2,59.6,105,-33.36,138.39,273
81008,COLBINABBIN,VIC,1477.6,1535.8,44.3,107,-36.54,144.78,144
35185,CAPELLA (ROWE\'S HILL) ALERT,QLD,1477.0,1472.3,-1.0,10,-23.12,148.04,484
36074,JOCHMUS,QLD,1473.6,1538.0,40.7,28,-22.30,145.99,312
9033,NEW NORCIA,WA,1470.8,1582.8,35.8,96,-30.97,116.22,220
23380,KAPUNDA WEST (KAPLEE),SA,1468.4,1372.2,-1.0,2,-34.30,138.85,391
10537,CRANBROOK,WA,1464.8,1514.7,41.0,106,-34.30,117.55,255
43109,ST GEORGE AIRPORT,QLD,1463.8,1353.1,-1.0,18,-28.05,148.60,199
29166,RIVERSLEIGH TM,QLD,1463.0,1271.6,-1.0,7,-18.97,138.80,115
23133,GREENACRES,SA,1461.8,1393.3,-1.0,14,-34.87,138.64,66
79097,KANAGULK,VIC,1459.2,1447.0,-1.0,13,-37.12,141.80,189
75041,GRIFFITH AIRPORT AWS,NSW,1456.8,1184.6,88.4,44,-34.25,146.07,134
23714,FINNISS,SA,1455.4,1494.3,42.3,98,-35.37,138.81,35
21001,AUBURN,SA,1445.7,1743.3,9.1,100,-34.03,138.68,310
26012,KINGSTON SE,SA,1443.6,1740.7,1.9,107,-36.83,139.85,7
10792,GAIRDNER,WA,1443.1,1356.1,70.0,41,-34.23,118.94,180
22823,CAPE BORDA,SA,1434.6,1621.0,-1.0,11,-35.75,136.60,158
18188,COFFIN BAY,SA,1429.0,1479.4,-1.0,14,-34.63,135.47,12
81049,TATURA INST SUSTAINABLE AG,VIC,1426.8,1468.4,48.5,67,-36.44,145.27,114
22049,STENHOUSE BAY,SA,1423.6,1340.7,91.3,24,-35.28,136.94,42
10635,RIVERDALE,WA,1423.2,1508.9,25.3,88,-33.79,116.91,260
44054,MULGA DOWNS,QLD,1421.6,1180.2,79.3,107,-28.81,147.12,146
42105,NINDIGULLY TM,QLD,1421.0,1214.0,-1.0,2,-28.42,148.83,25
26107,WILLALOOKA (NIOKA),SA,1420.8,1400.1,-1.0,9,-36.44,140.34,41
23871,SELLICKS BEACH,SA,1417.6,1464.1,-1.0,17,-35.32,138.46,25
36007,BARCALDINE POST OFFICE,QLD,1417.2,1475.6,48.7,114,-23.55,145.29,267
9279,CANTERBURY,WA,1414.8,1283.0,-1.0,8,-31.00,116.23,304
22831,AMERICAN RIVER (REDBANKS),SA,1413.4,1470.7,26.1,24,-35.75,137.72,75
15131,ELLIOTT,NT,1412.2,1606.6,27.3,34,-17.56,133.54,220
23318,TANUNDA,SA,1408.7,1629.3,15.0,114,-34.51,138.96,249
37010,CAMOOWEAL TOWNSHIP,QLD,1406.8,1214.5,77.1,110,-19.92,138.12,231
44068,TOMOO,QLD,1404.7,1455.3,48.0,74,-27.09,147.37,287
26016,LUCINDALE POST OFFICE,SA,1404.6,1823.1,0.9,108,-36.97,140.37,30
79075,RUPANYUP (POST OFFICE),VIC,1404.0,1288.8,76.5,99,-36.63,142.63,145
23146,STEINGARTEN VINEYARD (STEINGARTEN),SA,1403.8,1462.8,-1.0,8,-34.60,138.96,463
79017,GOROKE (POST OFFICE),VIC,1401.8,1535.0,28.6,106,-36.72,141.47,162
43100,OLD CASHMERE TM,QLD,1397.0,1249.0,-1.0,4,-27.73,148.47,24
26100,PADTHAWAY SOUTH,SA,1395.8,1361.6,-1.0,17,-36.65,140.52,37
48168,ANGLEDOOL (ANGLEDOOL STATION),NSW,1394.6,1366.4,59.7,120,-29.12,147.90,150
79040,ST ARNAUD,VIC,1392.9,1524.0,26.9,105,-36.62,143.26,240
10920,MOUNT WESTDALE,WA,1389.6,1287.8,-1.0,9,-32.27,116.67,360
44075,WOODLANDS,QLD,1387.4,1447.0,38.0,93,-27.27,148.08,283
23747,STRATHALBYN,SA,1387.3,1483.1,30.4,113,-35.26,138.89,70
23115,ADELAIDE (KESWICK),SA,1386.8,1393.8,-1.0,16,-34.95,138.58,34
48247,WANAARING (DELTA AWS),NSW,1383.8,1004.5,-1.0,3,-30.10,145.33,109
36040,SPRINGLEIGH,QLD,1382.8,1380.1,57.8,84,-24.56,144.72,270
35069,TAMBO POST OFFICE,QLD,1380.8,1570.2,31.1,120,-24.88,146.26,395
24573,TRURO,SA,1379.9,1489.3,29.2,114,-34.41,139.13,344
44231,MYENDETTA AL,QLD,1378.0,1139.6,-1.0,7,-26.55,146.02,308
44229,CHARLEVILLE AL,QLD,1376.8,1087.9,-1.0,7,-26.40,146.24,288
75032,HILLSTON AIRPORT,NSW,1376.7,1093.2,88.4,113,-33.49,145.52,122
81034,MOOROOPNA,VIC,1373.4,1500.0,32.6,93,-36.40,145.34,108
10304,NUNILE,WA,1371.6,1297.1,68.0,26,-31.49,116.54,280
8304,MOASCAR,WA,1370.8,1238.1,-1.0,9,-28.96,114.95,254
35134,BLACKWATER AIRPORT,QLD,1362.2,1563.1,-1.0,7,-23.60,148.81,193
26007,FRANCES,SA,1358.6,1561.1,9.7,114,-36.71,140.96,103
35063,SOMERBY,QLD,1357.6,1834.9,8.1,75,-24.21,148.74,215
74249,COLEAMBALLY IRRIGATION,NSW,1357.4,1286.7,62.5,25,-34.80,145.89,121
93059,FOSTERVILLE,TAS,1352.8,1363.5,-1.0,4,-41.93,147.43,177
8300,TABLETOP,WA,1351.2,1165.6,-1.0,15,-29.07,115.09,240
10520,BOSCABEL,WA,1349.3,1547.6,11.5,79,-33.66,117.05,260
21131,CLARE HIGH SCHOOL,SA,1348.2,1615.3,4.0,26,-33.82,138.59,395
23718,GOOLWA COUNCIL DEPOT,SA,1346.1,1422.7,34.6,105,-35.50,138.77,5
9961,HOPETOUN NORTH,WA,1344.8,1505.5,-1.0,17,-33.93,120.13,26
23885,NOARLUNGA,SA,1343.6,1287.0,-1.0,13,-35.16,138.51,55
80056,TONGALA,VIC,1341.7,1339.4,60.8,75,-36.25,144.96,104
29167,CENTURY MINE,QLD,1337.8,1715.3,-1.0,17,-18.76,138.71,127
24518,MENINGIE,SA,1336.5,1402.6,31.0,117,-35.69,139.34,3
18099,YEELANNA,SA,1332.9,1217.4,78.7,90,-34.13,135.73,95
79003,BEAZLEYS BRIDGE,VIC,1330.4,1443.5,26.2,62,-36.70,143.16,219
18192,NORTH SHIELDS (PORT LINCOLN AWS),SA,1330.0,1162.3,92.0,26,-34.60,135.88,9
23140,MITCHELL PARK (MARION),SA,1325.2,1353.9,-1.0,10,-35.01,138.56,32
81125,SHEPPARTON AIRPORT,VIC,1324.6,1322.2,60.9,24,-36.43,145.39,114
90024,COLERAINE HOSPITAL,VIC,1321.6,1835.3,0.0,101,-37.60,141.69,114
79071,APSLEY (POST OFFICE),VIC,1321.3,1714.4,0.0,50,-36.97,141.08,111
44230,BINNOWEE AL,QLD,1317.0,1187.7,-1.0,3,-26.48,146.09,200
23307,KAPUNDA,SA,1314.7,1470.8,16.4,117,-34.34,138.92,245
18171,MOUNT HOPE (FAIRVIEW),SA,1314.5,1259.0,64.2,96,-34.14,135.33,60
81046,STANHOPE,VIC,1313.8,1363.0,46.0,88,-36.44,144.98,108
23314,RIVERTON,SA,1308.8,1585.8,8.5,107,-34.16,138.75,265
30022,HUGHENDEN AIRPORT,QLD,1308.8,1333.0,-1.0,19,-20.82,144.23,316
36011,MARENGO,QLD,1300.4,1414.5,-1.0,8,-22.21,145.01,250
23725,KEYNETON,SA,1299.8,1589.9,4.5,89,-34.56,139.13,379
36026,ISISFORD POST OFFICE,QLD,1299.1,1298.7,53.6,111,-24.26,144.44,203
23147,MINTARO (MOUNT HORROCKS),SA,1296.6,1176.1,-1.0,3,-33.93,138.68,601
10641,MAYBROOK,WA,1295.2,1438.1,22.3,95,-33.38,116.91,260
29065,NARDOO STATION,QLD,1294.3,1821.2,7.8,52,-18.79,139.71,100
48190,GOODOOGA (WIRRAWA),NSW,1288.9,1144.2,-1.0,6,-29.35,147.40,131
36094,WAHROONGHA,QLD,1288.1,1045.6,-1.0,5,-24.45,144.11,200
21072,HUDDLESTON (WILLOW PONDS),SA,1287.6,1336.5,49.1,54,-33.33,138.32,190
37039,WINTON AIRPORT,QLD,1281.8,1125.9,-1.0,17,-22.36,143.08,192
4106,MARBLE BAR,WA,1281.0,1229.7,-1.0,13,-21.18,119.75,182
26099,NARACOORTE AERODROME,SA,1277.8,1448.9,23.8,22,-36.98,140.73,50
25560,BORDERTOWN (INDUSTRIAL ESTATE),SA,1276.0,1283.3,-1.0,15,-36.31,140.74,85
23383,GOMERSAL (WOODBRIDGE),SA,1274.4,1274.4,-1.0,1,-34.54,138.91,217
10502,AMELUP,WA,1274.2,1160.7,83.2,102,-34.26,118.22,210
21060,JAMESTOWN PIRSA,SA,1274.1,1357.9,40.3,63,-33.20,138.60,453
10307,QUADNEY,WA,1274.0,1243.6,-1.0,14,-31.79,116.63,310
19052,WIRRABARA,SA,1273.7,1418.1,27.3,111,-33.03,138.27,330
95046,BOTHWELL (CLYDE RIVER),TAS,1271.4,1231.2,-1.0,6,-42.38,147.00,350
18230,COFFIN BAY (POINT AVOID),SA,1271.2,1198.6,-1.0,3,-34.68,135.34,35
24580,STRATHALBYN RACECOURSE,SA,1271.2,1266.1,60.0,21,-35.28,138.89,58
35187,VALERIA ALERT,QLD,1270.0,1424.2,-1.0,10,-23.19,147.89,207
22018,WAROOKA,SA,1269.3,1331.4,35.4,114,-34.99,137.40,53
22841,KINGSCOTE AERO,SA,1268.4,1333.0,36.0,26,-35.71,137.52,6
36172,GUE,QLD,1266.0,1259.6,56.2,74,-21.97,144.33,250
10916,KATANNING,WA,1263.0,1317.0,-1.0,8,-33.69,117.61,320
21022,GULNARE,SA,1262.4,1401.4,23.1,105,-33.47,138.44,283
10311,YORK,WA,1262.1,1247.2,-1.0,15,-31.90,116.77,179
25507,KEITH,SA,1261.1,1378.1,23.0,114,-36.10,140.36,29
21031,LAURA,SA,1260.7,1378.6,22.1,114,-33.19,138.30,248
8273,ARENA,WA,1258.5,1227.3,54.8,32,-29.36,115.45,280
12114,RICHFIELDS,WA,1257.9,1404.3,15.8,39,-33.68,120.70,120
9014,DANDARAGAN WEST,WA,1256.4,1834.5,0.0,43,-30.70,115.58,150
30161,RICHMOND AIRPORT,QLD,1252.8,1376.1,28.6,22,-20.70,143.11,206
10508,BADGEBUP,WA,1249.0,1208.2,67.8,88,-33.64,117.93,300
18217,CUMMINS AERO,SA,1247.8,1264.2,-1.0,13,-34.25,135.71,60
19115,MANNANARIE,SA,1246.2,1338.3,-1.0,12,-33.02,138.62,507
23011,NORTH ADELAIDE,SA,1245.2,1633.0,1.8,114,-34.92,138.60,26
23134,KILBURN,SA,1245.0,1231.1,-1.0,14,-34.85,138.59,5
24519,MILANG,SA,1242.4,1169.2,72.7,111,-35.41,138.97,8
37059,NEW MAY DOWNS,QLD,1238.8,1215.1,-1.0,7,-20.59,139.34,392
23024,ADELAIDE (SEATON),SA,1234.4,1334.1,24.0,97,-34.90,138.51,10
10831,GLENROSE,WA,1233.1,1260.5,40.7,60,-33.48,117.61,330
23357,NURIOOTPA,SA,1231.8,1283.2,-1.0,16,-34.47,139.00,270
23825,GOOLWA BARRAGE,SA,1229.8,1271.7,-1.0,18,-35.53,138.81,1
21019,FARRELL FLAT,SA,1226.9,1415.2,17.7,114,-33.83,138.79,422
15666,RABBIT FLAT,NT,1225.8,1395.5,27.3,23,-20.18,130.01,340
37105,BELMONT,QLD,1223.4,1207.1,58.3,85,-22.08,143.51,240
8005,BARBERTON,WA,1223.2,1339.9,23.5,103,-30.73,116.02,200
10531,CHERRY TREE,WA,1221.6,1372.5,15.8,83,-33.70,117.27,295
8305,PORT DENISON,WA,1218.7,1136.5,-1.0,9,-29.28,114.95,20
29129,DEVONCOURT STATION,QLD,1217.9,1273.2,53.8,81,-21.22,140.23,282
8008,BERKSHIRE VALLEY,WA,1217.0,1283.2,41.1,113,-30.58,116.14,230
5098,KARIJINI NORTH,WA,1216.2,1216.2,-1.0,1,-22.30,118.45,474
48027,COBAR MO,NSW,1215.4,1173.2,56.1,58,-31.48,145.83,260
81016,ELMORE,VIC,1212.9,1374.9,22.2,91,-36.50,144.61,130
21059,HILLTOWN,SA,1211.8,1396.2,23.8,43,-33.69,138.64,345
10614,NARROGIN,WA,1210.2,1481.5,4.3,117,-32.93,117.18,338
18023,CUMMINS,SA,1209.2,1267.0,33.7,96,-34.26,135.73,65
10878,CHESALON,WA,1208.7,1240.0,41.7,49,-33.56,119.58,350
29127,MOUNT ISA AERO,QLD,1205.8,1365.5,40.8,50,-20.68,139.49,340
10152,MURESK INSTITUTE,WA,1204.2,1350.3,23.2,57,-31.75,116.68,166
12044,MUNGLINUP WEST,WA,1204.2,1335.6,-1.0,13,-33.55,120.70,220
10729,CHILLINUP,WA,1203.7,1234.1,40.5,38,-34.34,118.63,104
10626,PINGELLY,WA,1201.0,1343.6,19.8,117,-32.53,117.08,297
25514,TINTINARA,SA,1201.0,1402.2,8.6,94,-35.88,140.06,18
44010,BOLLON MARY ST,QLD,1201.0,1376.2,34.5,114,-28.03,147.48,183
24511,EUDUNDA,SA,1198.6,1346.0,22.7,120,-34.18,139.09,420
23894,HINDMARSH ISLAND AWS,SA,1194.2,1164.0,-1.0,16,-35.52,138.82,11
12297,BEAUMONT WEST,WA,1194.0,1321.0,5.3,20,-33.49,122.59,180
22036,MINLATON (EVERSLEY),SA,1191.7,1324.7,15.0,41,-34.75,137.63,72
49135,KILLALA,NSW,1191.2,977.5,-1.0,3,-31.99,145.97,259
48245,BOURKE AIRPORT AWS,NSW,1189.4,816.1,-1.0,17,-30.04,145.95,107
10111,NORTHAM,WA,1189.1,1298.9,26.8,113,-31.65,116.66,170
10921,INGLEBOURNE,WA,1186.5,1174.9,-1.0,9,-34.24,118.22,180
8168,HOWATHARRA,WA,1185.5,1370.4,20.3,65,-28.54,114.62,70
21137,HOYLETON (ROCKLEIGH),SA,1181.2,1328.4,-1.0,7,-34.00,138.57,224
24591,HARROGATE (MOUNT BEEVOR SOUTH),SA,1180.2,1116.5,-1.0,3,-34.93,139.03,489
23863,KANMANTOO (MILLBRAE),SA,1179.4,1282.7,-1.0,6,-35.02,139.00,252
80015,ECHUCA AERODROME,VIC,1178.3,1276.5,35.2,109,-36.16,144.76,96
10647,WAGIN,WA,1177.9,1305.4,18.6,114,-33.31,117.34,256
22046,EDITHBURGH,SA,1177.8,1124.9,80.0,26,-35.11,137.74,6
35275,ISLAY PLAINS,QLD,1177.0,1358.8,-1.0,12,-23.21,146.88,300
29058,JULIA CREEK AIRPORT,QLD,1173.8,1330.4,-1.0,11,-20.67,141.72,123
10515,BEVERLEY,WA,1171.0,1267.8,26.9,120,-32.11,116.92,199
10009,BOLGART,WA,1169.1,1367.3,14.6,83,-31.27,116.51,240
8286,WUNDI,WA,1165.1,1146.4,64.0,26,-28.28,114.68,200
44233,BAKERS BEND AL,QLD,1164.8,1106.2,-1.0,7,-26.71,146.11,261
18014,CLEVE,SA,1164.4,1212.4,39.5,120,-33.70,136.49,193
18079,STREAKY BAY,SA,1164.1,1127.4,58.9,113,-32.81,134.20,45
23083,EDINBURGH RAAF,SA,1163.6,1256.7,32.5,41,-34.71,138.62,17
10524,BROOKTON,WA,1162.6,1346.6,14.7,103,-32.37,117.01,250
23043,HALBURY ROAD SALISBURY (HALBURY ROAD),SA,1160.6,1192.1,-1.0,19,-34.76,138.63,25
8298,TIBRADDEN,WA,1158.8,1101.1,-1.0,14,-28.76,114.94,265
75140,GUNBAR (KELSEY),NSW,1157.8,1045.2,78.6,57,-34.15,145.14,99
18024,DARKE PEAK,SA,1157.0,1132.8,58.1,106,-33.47,136.21,165
21007,BRINKWORTH,SA,1150.7,1224.4,38.1,98,-33.69,138.40,178
23129,MALLALA (DOLAGHANS CROSSING RNDSUP),SA,1149.8,1108.9,-1.0,11,-34.46,138.56,42
22009,MINLATON,SA,1148.8,1283.0,23.6,111,-34.77,137.60,70
23349,SADDLEWORTH (GUMDALE),SA,1146.6,1301.7,-1.0,16,-34.09,138.79,337
48237,COBAR AIRPORT AWS,NSW,1145.2,1060.0,61.9,22,-31.54,145.80,218
10541,NYERILUP,WA,1144.4,1138.8,48.5,98,-33.86,118.82,280
21057,YACKA,SA,1142.9,1225.8,27.8,116,-33.57,138.45,165
22023,YORKETOWN,SA,1142.0,1236.4,26.1,116,-35.02,137.60,20
37053,CARTERS BORE,QLD,1140.6,1046.2,-1.0,6,-20.94,139.30,396
22054,PINE POINT (AMELIA DOWNS),SA,1140.2,1141.0,-1.0,14,-34.56,137.86,70
23013,PARAFIELD AIRPORT,SA,1139.4,1341.4,9.2,66,-34.80,138.63,10
18176,COWELL (WINTER SPRINGS),SA,1137.6,1024.6,70.0,41,-33.34,136.75,281
80067,CHARLTON (DONALD ST),VIC,1136.2,1270.1,32.6,50,-36.27,143.35,130
79036,NATIMUK,VIC,1135.9,1333.7,7.1,99,-36.74,141.94,122
23864,RED CREEK (BURWOOD),SA,1135.8,1149.7,-1.0,4,-35.14,138.97,191
74258,DENILIQUIN AIRPORT AWS,NSW,1132.4,1085.7,68.2,23,-35.56,144.95,94
8295,STRAWBERRY,WA,1130.8,1183.2,-1.0,19,-29.21,115.26,105
79100,HORSHAM AERODROME,VIC,1123.8,1095.5,85.7,22,-36.67,142.17,134
23034,ADELAIDE AIRPORT,SA,1123.6,1313.9,8.2,62,-34.95,138.52,2
22013,PORT VICTORIA,SA,1123.4,1141.3,44.1,94,-34.49,137.48,15
24508,CALLINGTON,SA,1122.2,1138.3,49.5,112,-35.13,139.04,96
8316,YALLALIE BASIN,WA,1122.0,978.8,-1.0,4,-30.38,115.85,274
10134,WATTENING,WA,1121.9,1295.2,11.7,104,-31.31,116.52,240
23143,MORPHETTVILLE,SA,1119.0,1141.1,-1.0,12,-34.98,138.54,17
10064,BOLGART BIN,WA,1118.4,1126.4,-1.0,14,-31.27,116.51,240
80128,CHARLTON,VIC,1118.2,1093.9,-1.0,16,-36.28,143.33,132
23128,BALAKLAVA (DONALEEN RNDSUP),SA,1117.0,1213.4,-1.0,9,-34.20,138.60,260
10058,GOOMALLING,WA,1116.3,1103.3,51.5,98,-31.30,116.83,239
10129,MOUNT NODDY,WA,1116.2,1124.5,-1.0,12,-31.59,116.89,-999
75173,HAY (BEDARBIDGAL),NSW,1113.6,1116.5,55.0,21,-34.64,145.15,100
78072,DONALD,VIC,1113.2,1181.5,45.6,47,-36.36,143.00,118
8276,IRWIN HOUSE,WA,1109.0,1276.0,25.8,32,-29.22,115.11,60
48250,NOONA AWS,NSW,1106.0,982.3,-1.0,3,-31.73,144.93,179
23372,BAROSSA VALLEY (DUCKPONDS CREEK),SA,1104.8,1418.8,-1.0,16,-34.45,139.06,352
74042,FINLEY POST OFFICE,NSW,1104.1,1310.1,17.5,104,-35.64,145.58,110
78010,DIMBOOLA,VIC,1103.8,1229.3,26.9,105,-36.46,142.03,111
8050,GERALDTON TOWN,WA,1102.4,1353.7,12.3,82,-28.78,114.61,3
18094,WIRRULLA,SA,1100.1,905.9,92.2,91,-32.40,134.53,79
23107,GAWLER,SA,1099.4,1114.0,-1.0,16,-34.60,138.74,40
10511,WICKEPIN SOUTH,WA,1099.0,889.5,-1.0,5,-32.80,117.50,380
23379,MOUNT RUFUS (DUTTON),SA,1098.0,959.7,-1.0,3,-34.31,139.12,512
78042,WYCHEPROOF,VIC,1096.4,1159.1,42.0,101,-36.08,143.23,110
24589,MONARTO SOUTH (MONARTO SECTION 307),SA,1093.8,1159.4,-1.0,10,-35.13,139.11,119
80036,MINCHA,VIC,1092.2,1092.3,51.1,93,-35.97,144.11,85
23310,MANOORA,SA,1091.1,1468.7,2.9,106,-34.00,138.82,391
18040,KIMBA,SA,1091.0,1040.7,62.1,96,-33.14,136.41,280
21029,KOOLUNGA,SA,1090.8,1176.1,35.6,116,-33.59,138.33,125
7185,PARABURDOO AERO,WA,1090.0,960.3,77.4,32,-23.17,117.75,424
8143,YANDANOOKA,WA,1089.5,1221.7,32.7,102,-29.29,115.63,210
4083,KARRATHA AERO,WA,1088.8,905.1,73.0,38,-20.71,116.77,5
23122,ROSEWORTHY AWS,SA,1088.8,1135.9,-1.0,16,-34.51,138.68,65
35016,CAPELLA POST OFFICE,QLD,1088.5,1739.7,3.5,114,-23.09,148.02,228
36031,LONGREACH AERO,QLD,1087.2,1267.5,41.4,59,-23.44,144.28,192
8137,WONGAN HILLS,WA,1086.0,1170.2,27.0,101,-30.89,116.72,283
12311,HILL PLAINS,WA,1086.0,1249.6,-1.0,14,-33.47,122.40,160
19001,APPILA,SA,1081.8,1160.3,31.9,114,-33.05,138.43,369
4019,MANDORA,WA,1081.0,1152.7,50.5,94,-19.74,120.84,8
18198,CLEVE (HEGGATON),SA,1080.7,1090.0,-1.0,7,-33.41,136.60,340
78018,KELLALAC (WARRACKNABEAL AIRPORT),VIC,1080.6,1009.9,-1.0,3,-36.32,142.42,118
49103,IVANHOE (BADEN PARK),NSW,1079.5,854.6,83.3,25,-32.17,144.20,90
10546,DUMBLEYUNG,WA,1079.3,1184.3,22.5,90,-33.31,117.74,270
21100,BURRA (LEIGHTON),SA,1078.3,1357.7,6.3,33,-33.65,138.83,501
23381,NGAPALA,SA,1078.0,1040.7,-1.0,2,-34.06,139.01,509
22807,KINGSCOTE,SA,1075.6,1480.4,0.0,72,-35.66,137.64,18
75019,HAY AIRPORT AWS,NSW,1075.4,1038.0,-1.0,13,-34.54,144.83,92
8299,ARRADALE,WA,1073.2,1067.4,-1.0,17,-29.11,115.32,270
10089,LONG FOREST,WA,1070.8,1073.3,-1.0,12,-31.35,116.65,299
10889,MORDETTA,WA,1070.8,1055.2,62.5,25,-32.89,118.63,320
21076,MANOORA (COOINDA),SA,1069.8,1423.5,2.0,50,-33.93,138.81,430
10043,CALJIE,WA,1066.5,1084.5,-1.0,11,-31.77,116.92,219
10908,YANGEDINE,WA,1064.8,1122.7,-1.0,19,-32.03,116.87,260
8317,ANRO TBRG,WA,1063.6,911.6,-1.0,4,-30.36,116.29,320
37120,WYORA,QLD,1063.2,1141.0,-1.0,13,-21.90,143.10,220
